country,location_name,latitude,longitude,last_updated,temperature_celsius,condition_text,wind_kph,wind_direction,pressure_mb,precip_mm,humidity,feels_like_celsius,visibility_km,gust_kph,air_quality_Carbon_Monoxide,air_quality_Ozone,air_quality_Nitrogen_dioxide,air_quality_Sulphur_dioxide,air_quality_PM2.5,air_quality_PM10,air_quality_us-epa-index,air_quality_gb-defra-index,date,time
Cote D'Ivoire,Yamoussoukro,6.8167,-5.2833,2025-12-16 07:15:00,22.8,Partly Cloudy,5.0,N,1012.0,0.0,83,24.9,10.0,9.6,277.85,43.0,5.65,1.35,17.15,28.45,2,2,2025-12-16,07:15:00
Swaziland,Mbabane,-26.3167,31.1333,2024-11-28 13:00:00,16.2,Patchy rain nearby,6.5,E,1015.0,0.01,70,16.2,10.0,7.5,229.4,63.0,2.405,4.255,9.435,9.805,1,1,2024-11-28,13:00:00
Bahrain,Manama,26.2361,50.5831,2025-12-26 10:15:00,20.3,Mist,14.8,NW,1018.0,0.0,73,20.3,4.0,19.7,391.85,62.0,14.55,24.05,51.15,96.05,3,6,2025-12-26,10:15:00
Ukraine,Kyiv,50.4333,30.5167,2024-12-30 12:00:00,3.7,Sunny,14.8,W,1023.0,0.0,64,0.2,10.0,21.3,471.75,34.0,24.79,8.695,39.59,45.695,2,4,2024-12-30,12:00:00
South Africa,Pretoria,-25.7469,28.188,2025-02-23 12:15:00,28.2,Sunny,4.7,SSW,1019.0,0.0,58,27.7,10.0,5.4,349.65,117.0,20.905,90.465,43.105,43.105,3,5,2025-02-23,12:15:00
Lebanon,Beirut,33.87,35.51,2024-05-24 17:30:00,25.0,Partly cloudy,38.9,SSW,1011.0,0.0,65,26.5,8.0,46.1,185.3,104.4,0.7,2.4,10.6,31.6,1,1,2024-05-24,17:30:00
Haiti,Port-Au-Prince,18.5392,-72.335,2025-04-29 04:45:00,22.2,Mist,6.1,E,1014.0,0.0,95,24.7,10.0,12.6,606.8,89.0,8.88,9.805,27.75,28.49,2,3,2025-04-29,04:45:00
Mauritania,Nouakchott,18.0864,-15.9753,2024-10-22 09:15:00,28.7,Cloudy,15.8,E,1013.0,0.0,27,27.3,10.0,31.5,236.8,61.0,1.665,1.11,43.475,268.805,3,5,2024-10-22,09:15:00
Grenada,Saint George's,12.05,-61.75,2025-12-16 03:15:00,25.4,Patchy rain nearby,18.7,E,1012.0,0.02,81,27.7,10.0,27.3,118.85,67.0,1.05,1.05,9.15,14.15,1,1,2025-12-16,03:15:00
Uzbekistan,Tashkent,41.3167,69.25,2025-05-29 13:45:00,31.0,Sunny,15.8,NW,1007.0,0.0,19,28.8,10.0,18.2,440.3,68.0,22.2,6.29,17.575,22.57,2,2,2025-05-29,13:45:00
India,New Delhi,28.6,77.2,2024-11-21 14:15:00,25.3,Mist,6.8,NW,1015.0,0.0,34,24.0,1.5,7.9,3011.8,72.0,84.36,65.86,188.145,189.07,5,10,2024-11-21,14:15:00
Egypt,Cairo,30.05,31.25,2025-01-23 12:30:00,19.2,Partly cloudy,10.1,NW,1023.0,0.0,56,19.2,10.0,11.6,586.45,53.0,66.6,157.435,35.705,52.725,2,3,2025-01-23,12:30:00
Bahrain,Manama,26.2361,50.5831,2024-10-06 12:15:00,31.1,Sunny,20.9,NNW,1009.0,0.0,57,34.7,10.0,28.9,360.75,105.0,29.97,43.475,86.58,442.705,4,10,2024-10-06,12:15:00
Belgium,'S Gravenjansdijk,51.25,3.6333,2025-08-14 10:30:00,27.3,Sunny,11.9,SW,1017.0,0.0,58,27.3,10.0,13.7,294.15,55.0,44.03,10.73,26.825,51.8,2,3,2025-08-14,10:30:00
Burundi,Bujumbura,-3.3761,29.36,2026-02-04 09:00:00,24.4,Patchy rain nearby,5.0,NNE,1015.0,0.12,69,26.0,10.0,5.8,326.85,57.0,4.85,1.35,22.65,23.05,2,2,2026-02-04,09:00:00
Congo,Brazzaville,-4.2592,15.2847,2024-11-12 10:00:00,29.2,Partly cloudy,5.4,ESE,1013.0,0.0,70,31.5,7.0,6.2,669.7,56.0,4.07,0.555,37.0,51.8,2,4,2024-11-12,10:00:00
Belize,Belmopan,17.25,-88.7667,2025-08-21 02:15:00,22.6,Mist,3.6,SSW,1011.0,0.0,96,25.1,2.0,4.4,240.5,37.0,1.295,0.555,9.065,11.285,1,1,2025-08-21,02:15:00
Sudan,Juba,12.15,24.45,2024-10-09 11:45:00,29.9,Sunny,17.3,SW,1014.0,0.0,51,31.5,10.0,19.9,395.9,47.0,4.995,0.74,35.15,81.585,2,3,2024-10-09,11:45:00
Azerbaijan,Baku,40.3953,49.8822,2025-07-14 13:00:00,37.1,Sunny,3.6,SE,1009.0,0.0,21,38.8,10.0,10.8,334.85,111.0,16.65,3.7,63.455,169.645,3,8,2025-07-14,13:00:00
Costa Rica,San Juan,9.97,-84.08,2024-05-25 08:00:00,23.0,Sunny,6.1,N,1019.0,0.0,73,25.0,10.0,13.3,747.7,6.1,10.0,5.4,19.8,22.5,2,2,2024-05-25,08:00:00
Morocco,Rabat,34.0253,-6.8361,2025-06-12 09:45:00,21.2,Partly cloudy,11.5,N,1015.0,0.0,73,21.2,6.0,13.4,303.4,75.0,2.96,4.255,18.5,29.045,2,2,2025-06-12,09:45:00
Austria,Vienna,48.2,16.3667,2024-12-20 12:15:00,6.2,Patchy rain nearby,27.4,NW,1015.0,0.01,64,1.8,10.0,33.7,316.35,61.0,9.805,0.925,6.66,11.47,1,1,2024-12-20,12:15:00
Fiji Islands,Suva,-18.1333,178.4167,2025-01-01 22:30:00,25.3,Partly cloudy,7.6,NE,1012.0,0.0,94,27.9,10.0,11.4,157.25,50.0,0.74,2.22,11.1,15.725,1,1,2025-01-01,22:30:00
Ecuador,Quito,-0.2167,-78.5,2025-02-03 05:30:00,11.0,Patchy light drizzle,3.6,N,1014.0,0.21,94,11.5,5.0,4.3,1476.3,47.0,16.465,14.245,19.795,20.165,2,2,2025-02-03,05:30:00
Estonia,Tallinn,59.4339,24.7281,2025-07-23 11:30:00,24.2,Partly cloudy,15.8,ENE,1007.0,0.01,61,25.9,10.0,24.5,323.75,50.0,13.32,1.295,15.355,18.685,1,2,2025-07-23,11:30:00
Madagascar,Ivory,-24.37,46.45,2024-07-08 16:00:00,25.5,Sunny,3.6,SSE,1014.0,0.0,24,24.5,10.0,4.0,217.0,56.5,0.1,0.1,1.4,3.0,1,1,2024-07-08,16:00:00
Barbados,Bridgetown,13.1,-59.6167,2025-08-12 04:15:00,28.3,Partly cloudy,20.9,ENE,1013.0,0.0,66,32.2,10.0,33.1,218.263,38.0,1.61,0.716,27.372,81.58,2,3,2025-08-12,04:15:00
Cape Verde,Praia,14.9315,-23.5125,2026-01-20 06:15:00,20.4,Partly cloudy,29.2,NNE,1014.0,0.0,73,20.4,10.0,36.8,125.85,83.0,1.15,1.05,9.05,20.45,1,1,2026-01-20,06:15:00
Bosnia And Herzegovina,Sarajevo,43.85,18.3833,2025-12-10 08:15:00,0.4,Fog,4.0,S,1025.0,0.0,100,-0.6,0.7,8.3,223.85,38.0,22.15,10.75,24.05,28.45,2,3,2025-12-10,08:15:00
Marshall Islands,Majuro,7.1,171.38,2024-07-21 00:45:00,28.4,Cloudy,26.6,ESE,1011.0,0.0,75,32.4,10.0,35.8,168.6,29.0,0.0,0.1,1.6,4.8,1,1,2024-07-21,00:45:00
Belize,Belmopan,17.25,-88.7667,2026-02-12 00:45:00,18.7,Fog,3.6,S,1018.0,0.0,99,18.7,0.0,10.8,141.85,43.0,5.05,1.25,10.55,12.45,1,1,2026-02-12,00:45:00
Yemen,Sanaa,15.3547,44.2067,2025-06-04 12:00:00,26.6,Sunny,17.6,E,1012.0,0.0,9,24.9,10.0,20.3,262.7,129.0,0.37,7.77,49.765,320.42,3,6,2025-06-04,12:00:00
Maldives,Dhidhdhoo,6.8833,73.1,2026-03-06 11:45:00,26.8,Sunny,3.6,WSW,1012.0,0.0,66,28.5,10.0,3.9,179.7,101.0,0.8,1.4,24.6,26.7,2,3,2026-03-06,11:45:00
Brunei Darussalam,Bandar Seri Begawan,4.88,114.93,2024-09-06 20:15:00,30.2,Partly cloudy,6.8,WNW,1009.0,0.0,84,39.2,8.0,14.0,556.85,61.0,0.555,3.145,36.445,54.02,2,4,2024-09-06,20:15:00
Latvia,Riga,56.95,24.1,2025-08-14 11:15:00,21.3,Sunny,3.6,S,1025.0,0.0,60,21.3,10.0,10.8,425.5,39.0,28.305,2.775,18.5,23.865,2,2,2025-08-14,11:15:00
Czech Republic,Prague,50.0833,14.4667,2025-01-13 11:45:00,-0.9,Sunny,9.4,NNW,1042.0,0.0,74,-4.2,10.0,11.4,375.55,54.0,32.375,14.985,14.06,18.5,1,2,2025-01-13,11:45:00
Angola,Luanda,-8.8383,13.2344,2025-04-10 10:15:00,27.3,Partly cloudy,6.5,SSE,1012.0,0.0,74,29.9,10.0,8.1,488.4,79.0,6.845,5.55,21.83,29.045,2,2,2025-04-10,10:15:00
Paraguay,Aurora,-23.43,-61.33,2024-07-15 10:00:00,12.1,Sunny,5.8,SSE,1029.0,0.0,47,12.0,10.0,6.6,213.6,22.7,0.0,0.1,4.1,4.7,1,1,2024-07-15,10:00:00
Costa Rica,San Ignacio,9.8,-84.1667,2024-12-22 04:15:00,14.3,Mist,9.0,NE,1015.0,0.0,97,13.9,2.0,17.5,399.6,64.0,4.44,5.55,2.22,2.22,1,1,2024-12-22,04:15:00
Oman,Muscat,23.6133,58.5933,2025-02-04 14:30:00,23.3,Sunny,15.8,NNW,1018.0,0.0,44,24.7,10.0,18.2,427.35,137.0,11.84,18.13,53.095,102.305,3,6,2025-02-04,14:30:00
Democratic Republic Of Congo,Kinshasa,-4.3,15.3,2024-07-26 13:30:00,34.6,Sunny,8.6,WSW,1012.0,0.0,28,34.4,10.0,9.9,701.0,88.7,1.4,0.6,12.5,20.8,1,2,2024-07-26,13:30:00
Philippines,Manila,14.6042,120.9822,2026-02-06 14:45:00,29.0,Overcast,5.0,E,1010.0,0.0,55,30.7,10.0,5.8,375.85,50.0,12.85,11.05,17.65,20.45,2,2,2026-02-06,14:45:00
Bosnia And Herzegovina,Sarajevo,43.85,18.3833,2026-03-17 07:30:00,6.0,Partly Cloudy,6.1,N,1017.0,0.0,56,4.8,10.0,7.1,377.85,37.0,19.15,20.45,51.35,52.85,3,6,2026-03-17,07:30:00
Mali,Bamako,12.65,-8.0,2026-01-24 07:15:00,14.2,Sunny,6.5,NNE,1016.0,0.0,44,14.2,10.0,13.6,144.85,45.0,2.85,2.25,22.85,84.65,2,2,2026-01-24,07:15:00
Georgia,Tbilisi,41.725,44.7908,2025-08-10 12:30:00,31.1,Partly Cloudy,16.2,NNW,1016.0,0.0,46,40.1,10.0,18.6,259.0,79.0,4.07,1.85,9.62,12.025,1,1,2025-08-10,12:30:00
Eritrea,Asmara,15.3333,38.9333,2025-06-03 12:00:00,25.4,Sunny,17.3,NE,1013.0,0.0,13,24.0,10.0,24.2,259.0,105.0,0.74,3.145,21.645,108.78,2,2,2025-06-03,12:00:00
Democratic Republic Of Congo,Kinshasa,-4.3,15.3,2024-08-01 13:15:00,34.1,Sunny,9.7,WSW,1012.0,0.0,25,33.1,10.0,11.2,527.4,66.5,0.9,0.6,2.8,11.8,1,1,2024-08-01,13:15:00
Paraguay,Aurora,-23.4333,-61.3333,2025-08-16 05:30:00,15.8,Clear,10.8,ENE,1012.0,0.0,62,15.8,10.0,22.7,266.837,66.0,2.182,0.839,12.419,12.419,1,2,2025-08-16,05:30:00
Ghana,Accra,5.55,-0.2167,2025-01-25 10:15:00,30.2,Partly cloudy,12.2,SW,1013.0,0.0,70,35.0,8.0,15.9,512.45,87.0,3.885,9.25,27.935,69.56,2,3,2025-01-25,10:15:00
Nicaragua,Managua,12.1508,-86.2683,2025-11-13 01:30:00,24.0,Partly cloudy,10.8,E,1011.0,0.0,83,25.8,10.0,22.7,198.85,58.0,2.75,2.35,3.75,4.05,1,1,2025-11-13,01:30:00
Liberia,Monrovia,6.3106,-10.8047,2024-10-08 09:45:00,25.0,Light rain,7.2,S,1015.0,0.2,94,27.1,5.0,9.8,268.25,37.0,0.925,0.925,8.51,14.985,1,1,2024-10-08,09:45:00
Lithuania,Vilnius,54.6833,25.3167,2025-09-04 11:00:00,21.3,Partly cloudy,5.8,SSW,1017.0,0.0,83,21.3,10.0,6.6,290.45,40.0,22.2,0.925,16.465,22.57,2,2,2025-09-04,11:00:00
Poland,Warsaw,52.25,21.0,2025-11-24 08:15:00,-3.6,Partly Cloudy,12.2,SSE,1006.0,0.0,100,-8.2,8.0,17.4,290.85,37.0,21.25,11.65,29.95,31.55,2,3,2025-11-24,08:15:00
Turkey,Yaren,39.55,27.6167,2025-08-27 11:00:00,23.4,Partly cloudy,25.2,NNE,1013.0,0.0,57,24.5,10.0,29.0,257.15,64.0,8.14,4.81,12.21,21.46,1,2,2025-08-27,11:00:00
Ethiopia,Addis Ababa,9.0333,38.7,2025-06-06 11:45:00,21.1,Partly cloudy,6.5,SE,1029.0,0.0,53,21.1,10.0,7.5,902.8,87.0,10.36,4.81,71.78,155.585,4,10,2025-06-06,11:45:00
Iceland,Reykjavik,64.15,-21.95,2025-10-03 06:45:00,5.1,Partly cloudy,9.7,SE,994.0,0.09,87,2.8,10.0,15.0,162.85,62.0,4.45,10.65,5.35,9.05,1,1,2025-10-03,06:45:00
Mali,Bamako,12.65,-8.0,2024-07-07 13:00:00,26.2,Partly cloudy,22.0,SW,1015.0,0.0,79,26.6,10.0,29.2,370.5,15.2,0.1,0.2,0.5,1.5,1,1,2024-07-07,13:00:00
Burkina Faso,Ouagadougou,12.3703,-1.5247,2025-10-12 07:45:00,25.1,Sunny,10.1,SSW,1012.0,0.0,89,26.6,10.0,14.2,268.85,53.0,3.45,1.35,10.85,14.75,1,1,2025-10-12,07:45:00
Armenia,Yerevan,40.1811,44.5136,2024-12-10 15:00:00,6.2,Mist,3.6,SW,1029.0,0.0,70,6.0,3.5,10.8,347.8,45.0,43.105,5.365,36.815,55.5,2,4,2024-12-10,15:00:00
Syria,Damascus,33.5,36.3,2025-05-08 11:45:00,28.0,Sunny,6.1,SSE,1017.0,0.0,19,26.0,10.0,7.1,242.35,78.0,14.615,101.565,32.19,52.91,2,3,2025-05-08,11:45:00
Comoros,Moroni,-11.7,43.24,2024-09-16 14:00:00,25.4,Light rain shower,10.1,SSW,1017.0,0.19,75,27.4,10.0,12.5,249.75,65.0,0.37,0.37,20.35,37.925,2,2,2024-09-16,14:00:00
China,Beijing,39.9289,116.3883,2024-12-15 19:00:00,6.1,Clear,5.0,W,1024.0,0.0,17,5.3,10.0,9.0,2116.4,37.0,70.115,100.455,107.67,167.055,4,10,2024-12-15,19:00:00
Chile,Santiago,-33.45,-70.6667,2025-03-06 06:45:00,15.2,Clear,3.6,SW,1012.0,0.0,67,15.2,10.0,10.8,987.9,52.0,70.115,91.205,74.0,75.11,4,10,2025-03-06,06:45:00
Brunei Darussalam,Bandar Seri Begawan,4.88,114.93,2024-05-21 22:45:00,28.0,Partly cloudy,3.6,N,1009.0,0.46,89,34.2,10.0,10.8,934.6,4.3,15.8,3.9,3.5,3.9,1,1,2024-05-21,22:45:00
Cyprus,Nicosia,35.1667,33.3667,2025-09-13 11:00:00,32.2,Sunny,3.6,NE,1013.0,0.0,32,31.3,10.0,3.7,216.45,74.0,3.885,2.59,18.685,24.42,2,2,2025-09-13,11:00:00
Vanuatu,Port Vila,-17.73,168.32,2024-05-19 01:30:00,25.0,Patchy rain nearby,15.8,ESE,1008.0,0.05,92,27.8,10.0,23.5,217.0,34.7,0.2,1.0,2.9,6.3,1,1,2024-05-19,01:30:00
Mongolia,Ulaanbaatar,47.9167,106.9167,2025-08-06 16:30:00,25.2,Sunny,9.4,E,1015.0,0.0,36,26.8,10.0,19.7,279.35,112.0,5.55,32.375,10.36,11.655,1,1,2025-08-06,16:30:00
Singapore,Singapore,1.2931,103.8558,2025-11-30 14:45:00,31.1,Partly cloudy,9.4,SW,1010.0,0.02,63,39.2,10.0,12.0,658.85,41.0,68.95,29.65,20.55,20.95,2,2,2025-11-30,14:45:00
Thailand,Nan,18.7833,100.7833,2025-05-24 15:45:00,32.3,Partly cloudy,4.7,NNW,1004.0,1.74,63,42.1,10.0,5.4,323.75,58.0,6.66,2.59,16.095,16.28,2,2,2025-05-24,15:45:00
Dominica,Roseau,15.3,-61.4,2024-07-06 09:15:00,30.2,Partly cloudy,6.1,S,1016.0,0.13,59,37.6,10.0,34.6,178.6,29.3,0.9,0.2,2.0,5.3,1,1,2024-07-06,09:15:00
Tunisia,Tunis,36.8028,10.1797,2024-12-29 11:15:00,14.0,Partly cloudy,13.7,WNW,1029.0,0.0,82,13.0,10.0,16.5,451.4,49.0,12.765,22.015,24.975,41.995,2,3,2024-12-29,11:15:00
Egypt,Cairo,30.05,31.25,2025-02-08 12:30:00,15.1,Partly cloudy,14.8,NNE,1021.0,0.0,39,15.1,10.0,17.0,516.15,73.0,36.63,122.655,33.67,41.81,2,3,2025-02-08,12:30:00
Angola,Luanda,-8.8383,13.2344,2024-11-26 09:45:00,28.1,Partly cloudy,4.3,SW,1012.0,0.04,70,31.6,10.0,5.6,479.15,60.0,4.625,5.92,19.055,26.64,2,2,2024-11-26,09:45:00
Croatia,Zagreb,45.8,16.0,2025-02-07 11:30:00,4.4,Sunny,4.0,E,1034.0,0.0,70,3.9,10.0,4.6,540.2,47.0,17.945,4.625,50.505,58.645,3,6,2025-02-07,11:30:00
Portugal,Lisbon,38.7167,-9.1333,2026-02-09 06:45:00,15.2,Partly cloudy,21.2,W,1012.0,0.02,94,15.2,10.0,32.5,130.85,62.0,7.05,2.15,6.15,11.85,1,1,2026-02-09,06:45:00
Gambia,Banjul,13.4531,-16.5775,2024-11-18 08:45:00,23.1,Sunny,21.6,N,1009.0,0.0,78,25.0,10.0,32.3,283.05,56.0,3.145,0.925,21.645,61.605,2,2,2024-11-18,08:45:00
Andorra,Andorra La Vella,42.5,1.5167,2025-04-29 10:45:00,11.0,Patchy rain nearby,9.7,S,1021.0,0.24,67,9.9,10.0,11.2,219.908,67.0,5.013,0.162,10.025,11.157,1,1,2025-04-29,10:45:00
Syria,Damascus,33.5,36.3,2025-01-11 13:30:00,13.6,Sunny,5.0,SSW,1016.0,0.0,44,13.8,10.0,5.8,307.1,55.0,16.465,120.065,40.145,57.165,2,4,2025-01-11,13:30:00
Lithuania,Vilnius,54.6833,25.3167,2025-10-05 09:30:00,8.4,Overcast,16.6,SSW,1002.0,0.14,87,5.7,10.0,21.0,162.85,47.0,2.85,1.35,10.75,12.35,1,1,2025-10-05,09:30:00
Russia,Moscow,55.7522,37.6156,2024-12-17 13:45:00,0.0,Partly cloudy,20.9,W,987.0,0.01,69,-5.4,10.0,30.7,595.7,40.0,66.23,49.025,30.71,39.405,2,3,2024-12-17,13:45:00
Serbia,Belgrade,44.804,20.4651,2024-11-08 10:00:00,11.5,Partly Cloudy,8.3,ESE,1031.0,0.0,31,10.7,10.0,10.4,923.15,20.0,26.455,25.715,71.04,79.735,4,10,2024-11-08,10:00:00
Costa Rica,San Ignacio,9.8,-84.1667,2025-05-11 02:45:00,21.3,Fog,6.1,ENE,1014.0,0.0,83,21.3,10.0,10.5,397.75,56.0,10.36,3.885,10.545,11.1,1,1,2025-05-11,02:45:00
Egypt,Cairo,30.05,31.25,2024-11-15 11:00:00,22.3,Partly cloudy,23.8,NNE,1017.0,0.0,69,24.2,10.0,27.3,492.1,44.0,52.91,68.08,52.355,81.215,3,6,2024-11-15,11:00:00
Cyprus,Nicosia,35.1667,33.3667,2025-01-08 12:30:00,17.1,Partly cloudy,9.7,E,1024.0,0.0,68,17.1,10.0,11.2,321.9,73.0,7.215,12.395,30.155,49.95,2,3,2025-01-08,12:30:00
Japan,Tokyo,35.6895,139.6917,2025-07-18 17:30:00,29.1,Partly cloudy,33.1,S,1015.0,0.0,66,32.5,10.0,38.3,353.35,27.0,27.565,22.015,22.755,27.75,2,2,2025-07-18,17:30:00
Ukraine,Kyiv,50.4333,30.5167,2025-04-11 12:15:00,3.1,Partly Cloudy,7.9,NNW,1010.0,0.0,40,1.0,10.0,9.2,360.75,71.0,12.765,5.18,12.765,14.615,1,2,2025-04-11,12:15:00
Saint Kitts And Nevis,Basseterre,17.3,-62.7167,2024-10-06 05:15:00,28.2,Clear,4.3,SE,1010.0,0.0,67,30.9,10.0,6.1,203.5,66.0,0.74,10.36,11.1,21.645,1,1,2024-10-06,05:15:00
France,Paris,48.8667,2.3333,2025-07-17 10:45:00,21.1,Overcast,4.0,WSW,1020.0,0.0,73,21.1,10.0,4.6,508.75,25.0,47.36,2.775,15.91,24.79,2,2,2025-07-17,10:45:00
Zimbabwe,Harare,-17.8178,31.0447,2026-01-20 09:15:00,17.7,Patchy rain nearby,4.0,SW,1013.0,2.07,95,17.7,10.0,6.3,323.85,36.0,6.65,1.45,11.15,11.25,1,1,2026-01-20,09:15:00
Antigua And Barbuda,Saint John's,17.1167,-61.85,2024-12-29 06:15:00,24.3,Partly cloudy,27.4,NNE,1014.0,0.0,57,25.7,10.0,37.8,246.015,100.0,0.181,0.362,10.13,17.004,1,1,2024-12-29,06:15:00
Uzbekistan,Tashkent,41.3167,69.25,2026-02-03 12:00:00,12.3,Sunny,10.8,SSW,1021.0,0.0,56,11.2,10.0,13.7,246.85,54.0,19.35,5.25,16.55,32.05,2,2,2026-02-03,12:00:00
Iceland,Vestmannaeyjar,63.37,-20.21,2024-08-07 12:00:00,10.6,Partly Cloudy,15.8,SE,999.0,0.0,90,8.5,10.0,24.9,191.9,41.8,0.2,0.5,1.6,2.1,1,1,2024-08-07,12:00:00
Lesotho,Maseru,-29.32,27.48,2024-07-24 14:45:00,17.1,Sunny,15.1,WSW,1018.0,0.0,14,17.1,10.0,17.4,208.6,64.4,0.2,0.3,10.4,38.2,1,1,2024-07-24,14:45:00
Lesotho,Maseru,-29.3167,27.4833,2024-10-09 11:45:00,22.1,Partly cloudy,16.2,NNW,1029.0,0.0,35,23.0,10.0,18.6,384.8,92.0,5.18,42.735,29.415,44.955,2,3,2024-10-09,11:45:00
Belgium,Brussels,50.83,4.33,2024-07-29 14:15:00,25.9,Sunny,11.9,ESE,1021.0,0.0,44,26.3,10.0,13.7,210.3,155.9,2.1,2.6,9.5,11.3,1,1,2024-07-29,14:15:00
Estonia,Tallinn,59.4339,24.7281,2025-03-12 11:45:00,-0.9,Overcast,22.3,ENE,1002.0,0.0,74,-6.7,10.0,29.3,351.5,60.0,13.32,1.665,4.625,6.29,1,1,2025-03-12,11:45:00
Thailand,Bangkok,13.75,100.5167,2024-12-11 17:45:00,32.2,Partly cloudy,16.9,N,1006.0,0.0,46,33.9,10.0,21.3,1631.7,103.0,52.54,47.73,44.215,44.77,3,5,2024-12-11,17:45:00
Malta,Valletta,35.8997,14.5147,2025-08-16 10:30:00,28.2,Sunny,4.0,NNE,1013.0,0.0,74,30.7,10.0,4.9,288.6,85.0,24.235,2.96,36.445,42.735,2,4,2025-08-16,10:30:00
United Kingdom,London,51.5171,-0.1062,2024-11-12 09:00:00,8.3,Partly cloudy,19.1,N,1036.0,0.0,87,5.3,10.0,28.0,371.85,40.0,38.665,6.29,22.2,35.89,2,2,2024-11-12,09:00:00
Costa Rica,San Jose,9.9333,-84.0833,2025-12-19 01:15:00,20.2,Clear,7.6,ENE,1017.0,0.0,64,20.2,10.0,15.9,222.85,44.0,9.85,5.15,10.05,11.35,1,1,2025-12-19,01:15:00
Cape Verde,Praia,14.9315,-23.5125,2026-02-15 05:45:00,19.3,Clear,26.6,N,1014.0,0.0,78,19.3,9.0,37.1,128.85,83.0,1.15,1.35,59.85,208.05,3,8,2026-02-15,05:45:00
Ireland,Dublin,53.3331,-6.2489,2025-09-11 09:00:00,11.3,Partly cloudy,29.9,WSW,996.0,0.02,82,8.3,10.0,34.4,284.9,54.0,10.545,1.11,6.475,14.43,1,1,2025-09-11,09:00:00
Ghana,Accra,5.55,-0.2167,2025-02-26 10:00:00,29.4,Mist,15.5,SW,1012.0,0.0,79,33.0,5.0,19.4,547.6,91.0,3.33,8.325,30.34,65.675,2,3,2025-02-26,10:00:00
Swaziland,Mbabane,-26.32,31.13,2024-07-28 14:45:00,25.9,Sunny,17.3,WSW,1010.0,0.0,6,24.4,10.0,19.9,220.3,85.1,3.9,18.4,10.2,15.0,1,1,2024-07-28,14:45:00
Barbados,Bridgetown,13.1,-59.6167,2025-06-26 05:00:00,27.2,Partly cloudy,31.7,E,1013.0,0.03,79,29.9,10.0,46.4,212.896,58.0,1.61,0.716,16.996,43.295,2,2,2025-06-26,05:00:00
Vietnam,Hanoi,21.0333,105.85,2025-09-17 15:00:00,26.2,Moderate or heavy rain with thunder,13.3,ESE,1008.0,0.66,94,28.2,10.0,17.7,863.95,45.0,59.57,66.045,90.095,90.65,4,10,2025-09-17,15:00:00
Cape Verde,Praia,14.93,-23.51,2024-07-24 11:45:00,26.0,Partly Cloudy,5.8,NNE,1016.0,0.0,73,28.0,10.0,6.6,201.9,40.4,1.3,0.3,12.7,57.7,1,2,2024-07-24,11:45:00
Guatemala,Guatemala City,14.6211,-90.5269,2025-07-31 02:30:00,19.1,Partly cloudy,5.8,N,1023.0,0.0,88,19.1,10.0,10.5,543.9,46.0,5.735,1.295,13.32,13.505,1,2,2025-07-31,02:30:00
Vanuatu,Port Vila,-17.7333,168.3167,2026-02-19 17:45:00,26.3,Partly cloudy,5.0,W,1010.0,0.0,100,28.7,10.0,8.5,86.85,21.0,1.05,1.35,4.85,6.55,1,1,2026-02-19,17:45:00
Turkmenistan,Ashgabat,37.95,58.38,2024-09-25 14:30:00,30.2,Partly cloudy,13.3,NNW,1012.0,0.0,43,29.8,10.0,15.3,368.15,60.0,28.12,8.88,22.2,88.8,2,2,2024-09-25,14:30:00
Morocco,Rabat,34.0253,-6.8361,2025-07-24 09:45:00,22.3,Partly cloudy,5.0,N,1010.0,0.0,94,24.7,6.0,6.4,271.95,71.0,7.215,7.4,16.095,36.815,2,2,2025-07-24,09:45:00
Democratic Republic Of Congo,Kinshasa,-4.3,15.3,2025-09-11 09:00:00,23.2,Partly cloudy,9.7,WSW,1020.0,0.0,78,25.0,6.0,11.2,682.65,70.0,4.995,1.48,35.705,36.26,2,3,2025-09-11,09:00:00
Guinea-Bissau,Bissau,11.85,-15.5833,2025-03-23 09:45:00,23.3,Sunny,8.6,WSW,1012.0,0.0,78,25.1,8.0,10.3,325.6,75.0,2.405,2.035,57.905,150.405,3,7,2025-03-23,09:45:00
Spain,Madrid,40.4,-3.6833,2024-10-03 11:30:00,19.1,Partly cloudy,13.3,NW,1015.0,0.0,56,19.1,10.0,15.3,290.45,37.0,36.075,7.4,11.47,17.02,1,1,2024-10-03,11:30:00
Monaco,Monaco,43.73,7.42,2024-09-10 14:30:00,25.2,Sunny,9.4,SSW,1009.0,0.0,53,26.1,10.0,10.8,277.5,101.0,6.475,1.665,5.92,8.51,1,1,2024-09-10,14:30:00
Sri Lanka,Colombo,6.93,79.85,2024-07-28 18:15:00,27.9,Thundery outbreaks in nearby,20.9,WSW,1007.0,0.13,82,32.4,9.0,30.7,250.3,29.7,5.4,1.7,2.5,5.8,1,1,2024-07-28,18:15:00
Equatorial Guinea,Malabo,3.75,8.7833,2024-12-08 11:30:00,27.9,Sunny,9.0,NW,1012.0,0.0,71,30.8,10.0,10.4,455.1,75.0,2.405,1.48,18.13,29.23,2,2,2024-12-08,11:30:00
Maldives,Dhidhdhoo,6.8833,73.1,2024-11-19 13:45:00,24.6,Light drizzle,7.2,ESE,1010.0,0.58,85,26.9,2.0,9.8,244.826,68.0,0.17,0.17,3.06,4.761,1,1,2024-11-19,13:45:00
Congo,Brazzaville,-4.2592,15.2847,2025-04-13 10:00:00,27.2,Partly cloudy,3.6,S,1014.0,0.0,79,28.6,10.0,10.8,762.2,72.0,5.365,2.96,30.525,30.895,2,3,2025-04-13,10:00:00
Uzbekistan,Tashkent,41.32,69.25,2024-05-31 19:15:00,30.0,Sunny,11.2,N,1016.0,0.0,18,28.1,10.0,21.6,307.1,62.2,47.3,3.7,7.2,9.8,1,1,2024-05-31,19:15:00
Benin,Porto-Novo,6.4833,2.6167,2025-09-19 09:00:00,25.4,Patchy rain nearby,12.6,WSW,1013.0,0.02,89,27.6,10.0,16.2,423.65,36.0,6.105,2.035,21.09,25.9,2,2,2025-09-19,09:00:00
United States,Washington Harbor,48.0792,-123.0439,2025-07-14 02:00:00,12.8,Clear,16.6,W,1020.0,0.0,96,11.2,16.0,34.8,177.6,43.0,3.145,0.555,4.07,4.81,1,1,2025-07-14,02:00:00
South Africa,Pretoria,-25.75,28.19,2024-07-14 15:15:00,24.4,Clear,22.0,WNW,1023.0,0.0,10,23.4,10.0,29.2,1068.1,26.1,22.3,47.7,63.6,78.7,3,8,2024-07-14,15:15:00
Turkey,Ankara,39.9272,32.8644,2025-04-07 12:15:00,13.3,Partly cloudy,28.4,SW,1010.0,0.0,58,11.0,10.0,32.7,310.8,63.0,29.23,24.605,17.205,21.645,2,2,2025-04-07,12:15:00
Tunisia,Tunis,36.8028,10.1797,2025-07-27 09:30:00,28.2,Partly cloudy,29.9,NW,1015.0,0.0,55,28.9,10.0,34.4,268.25,91.0,2.96,2.405,11.1,21.46,1,1,2025-07-27,09:30:00
Swaziland,Mbabane,-26.32,31.13,2024-09-05 14:00:00,31.3,Sunny,20.2,E,1017.0,0.0,17,29.1,10.0,27.4,130.0,105.0,3.9,17.7,3.9,5.7,1,1,2024-09-05,14:00:00
Belgium,'S Gravenjansdijk,51.25,3.6333,2025-01-16 11:15:00,4.2,Mist,8.6,SE,1036.0,0.0,100,2.0,2.7,12.0,555.0,11.0,86.395,3.33,52.54,60.125,3,6,2025-01-16,11:15:00
Algeria,Algiers,36.7631,3.0506,2025-11-18 08:30:00,10.2,Partly cloudy,7.2,SW,1015.0,0.0,94,9.4,10.0,11.2,187.85,28.0,31.75,7.05,6.95,9.45,1,1,2025-11-18,08:30:00
Gambia,Banjul,13.4531,-16.5775,2024-12-15 10:15:00,25.4,Sunny,6.5,ENE,1013.0,0.0,72,27.2,10.0,11.5,442.15,74.0,5.55,2.96,77.7,285.085,4,10,2024-12-15,10:15:00
Ethiopia,Addis Ababa,9.0333,38.7,2025-11-03 11:00:00,19.3,Sunny,14.4,E,1030.0,0.0,46,19.3,10.0,16.6,329.85,75.0,4.05,2.65,16.45,30.25,2,2,2025-11-03,11:00:00
Costa Rica,San Ignacio,9.8,-84.17,2024-07-02 07:15:00,22.1,Partly cloudy,6.8,E,1017.0,0.0,78,24.6,10.0,7.7,500.7,0.6,6.2,7.3,13.5,14.9,1,2,2024-07-02,07:15:00
Uzbekistan,Tashkent,41.3167,69.25,2025-06-17 14:00:00,38.3,Sunny,12.6,SW,1003.0,0.0,17,37.5,10.0,14.5,407.0,135.0,10.915,17.945,51.985,56.795,3,6,2025-06-17,14:00:00
New Zealand,Wellington,-41.3,174.7833,2025-07-12 20:45:00,14.3,Clear,37.1,NNW,1001.0,0.0,77,11.9,10.0,60.7,151.7,65.0,2.22,1.11,9.065,13.875,1,1,2025-07-12,20:45:00
Panama,Panama City,8.9667,-79.5333,2025-07-06 05:00:00,25.3,Overcast,5.0,NNE,1012.0,1.27,89,28.5,9.0,8.7,481.0,74.0,8.14,3.515,6.105,6.66,1,1,2025-07-06,05:00:00
Armenia,Yerevan,40.1811,44.5136,2025-09-22 12:00:00,17.1,Patchy rain nearby,13.0,S,1025.0,0.01,52,17.1,10.0,14.9,251.6,48.0,14.43,0.925,4.44,4.995,1,1,2025-09-22,12:00:00
Malawi,Lilongwe,-13.9833,33.7833,2026-03-31 08:30:00,18.8,Fog,3.6,E,1015.0,0.06,98,18.8,0.0,10.8,242.85,36.0,3.25,0.95,5.15,5.25,1,1,2026-03-31,08:30:00
Tanzania,Dodoma,-6.1833,35.75,2025-06-25 12:00:00,23.3,Sunny,14.0,E,1022.0,0.0,53,24.6,10.0,16.2,253.45,68.0,1.295,0.925,19.24,22.2,2,2,2025-06-25,12:00:00
Cuba,Havana,23.1319,-82.3642,2025-03-11 05:45:00,21.0,Partly cloudy,22.3,NNW,1015.0,0.0,78,21.0,8.0,32.7,344.1,106.0,2.775,4.255,15.355,23.31,1,2,2025-03-11,05:45:00
Canada,Ottawa,45.4167,-75.7,2026-01-09 02:15:00,-0.8,Overcast,11.5,ESE,1019.0,0.0,93,-4.7,16.0,20.6,224.85,62.0,11.75,2.35,6.25,6.85,1,1,2026-01-09,02:15:00
Saudi Arabia,Riyadh,24.6408,46.7728,2025-01-15 12:45:00,18.2,Sunny,3.6,NNE,1024.0,0.0,28,18.2,10.0,4.0,1278.35,27.0,94.905,115.995,51.06,65.86,3,6,2025-01-15,12:45:00
Syria,Damascus,33.5,36.3,2025-01-20 14:30:00,14.4,Sunny,9.0,E,1017.0,0.0,42,14.0,10.0,10.4,290.45,60.0,15.91,114.145,26.455,31.82,2,3,2025-01-20,14:30:00
Mali,Bamako,12.65,-8.0,2024-06-14 14:00:00,34.1,Partly cloudy,3.6,S,1013.0,0.0,53,35.0,10.0,12.9,357.2,26.1,0.4,1.1,1.5,2.5,1,1,2024-06-14,14:00:00
Romania,Bucharest,44.43,26.1,2024-08-01 15:15:00,34.5,Sunny,7.2,SW,1011.0,0.0,18,32.6,10.0,8.3,207.0,113.0,0.8,0.5,5.9,6.3,1,1,2024-08-01,15:15:00
India,New Delhi,28.6,77.2,2026-02-11 12:15:00,24.0,Mist,12.6,NW,1021.0,0.0,47,23.6,2.5,14.5,2156.85,24.0,60.65,41.35,152.65,157.75,5,10,2026-02-11,12:15:00
Belgium,Brussels,50.8333,4.3333,2025-08-14 10:15:00,26.0,Sunny,7.6,S,1018.0,0.0,61,26.2,10.0,8.7,338.55,53.0,41.995,2.405,30.895,53.28,2,3,2025-08-14,10:15:00
Sudan,Khartoum,15.59,32.53,2024-08-21 14:15:00,35.7,Partly Cloudy,20.5,SW,1005.0,0.0,40,39.5,10.0,23.6,333.8,47.2,0.5,0.4,25.5,139.9,2,3,2024-08-21,14:15:00
Macedonia,Skopje,42.0,21.43,2024-05-16 16:00:00,14.0,Overcast,9.0,SE,1019.0,0.0,94,12.6,10.0,21.6,207.0,90.8,3.0,7.0,5.2,5.4,1,1,2024-05-16,16:00:00
Bahamas,Nassau,25.0833,-77.35,2025-10-07 04:00:00,25.3,Clear,17.3,ESE,1014.0,0.0,89,27.6,9.0,22.9,122.85,71.0,1.85,1.25,2.45,3.35,1,1,2025-10-07,04:00:00
Guinea-Bissau,Bissau,11.85,-15.58,2024-05-30 13:45:00,36.0,Sunny,3.6,WSW,1012.0,0.0,29,39.6,8.0,7.5,220.3,66.5,0.2,0.7,17.3,79.3,2,2,2024-05-30,13:45:00
Turkmenistan,Ashgabat,37.95,58.38,2024-07-05 17:45:00,40.3,Sunny,11.2,NNW,1004.0,0.0,13,40.4,10.0,20.3,170.2,115.9,1.4,1.5,11.1,53.1,1,1,2024-07-05,17:45:00
Kiribati,Tarawa,-0.8833,169.5333,2025-07-23 20:45:00,27.9,Partly Cloudy,19.8,ENE,1011.0,0.0,72,31.0,10.0,26.1,166.5,34.0,0.0,0.185,6.66,11.1,1,1,2025-07-23,20:45:00
Turkmenistan,Ashgabat,37.95,58.3833,2025-09-21 13:00:00,25.1,Sunny,5.4,NNE,1014.0,0.0,39,25.4,10.0,6.2,680.8,31.0,36.075,12.395,29.045,66.6,2,3,2025-09-21,13:00:00
Monaco,Monaco,43.7333,7.4167,2025-08-26 10:15:00,25.3,Sunny,11.2,ESE,1015.0,0.0,69,27.0,10.0,12.9,296.0,71.0,11.285,0.74,13.875,16.65,1,2,2025-08-26,10:15:00
Cuba,Havana,23.1319,-82.3642,2025-09-27 03:45:00,23.2,Clear,11.5,NE,1011.0,0.0,100,25.4,8.0,18.5,619.75,51.0,9.065,10.36,8.51,11.1,1,1,2025-09-27,03:45:00
Ghana,Accra,5.55,-0.2167,2025-03-30 09:30:00,30.2,Partly cloudy,18.7,WSW,1010.0,0.01,75,36.0,8.0,23.8,481.0,65.0,3.885,9.99,15.355,35.15,1,2,2025-03-30,09:30:00
Italy,Rome,41.9,12.4833,2025-04-06 11:00:00,15.3,Sunny,6.8,WNW,1009.0,0.0,72,15.3,10.0,7.9,368.15,67.0,18.685,2.035,45.14,47.73,3,5,2025-04-06,11:00:00
Ecuador,Quito,-0.2167,-78.5,2024-12-04 05:30:00,10.0,Patchy rain nearby,3.6,SSE,1017.0,0.12,93,10.0,10.0,10.8,603.1,64.0,8.325,19.425,15.91,15.91,2,2,2024-12-04,05:30:00
Equatorial Guinea,Malabo,3.75,8.7833,2026-02-15 07:45:00,24.1,Patchy light rain with thunder,13.0,SW,1011.0,0.02,100,26.2,10.0,16.4,198.85,40.0,8.95,2.05,14.25,23.85,1,2,2026-02-15,07:45:00
Guinea-Bissau,Bissau,11.85,-15.5833,2025-04-29 08:45:00,25.4,Sunny,11.9,WSW,1011.0,0.0,89,27.7,7.0,15.3,281.2,59.0,1.48,2.96,66.6,251.6,4,9,2025-04-29,08:45:00
Belgium,Brussels,50.8333,4.3333,2024-11-11 10:00:00,10.0,Mist,16.2,NNW,1030.0,0.0,100,7.8,4.5,23.1,468.05,10.0,57.905,4.995,51.8,74.185,3,6,2024-11-11,10:00:00
Central African Republic,Bangui,4.3667,18.5833,2025-03-10 10:30:00,32.1,Sunny,5.4,S,1013.0,0.0,56,31.5,10.0,6.2,629.0,43.0,1.48,0.37,44.4,57.535,3,5,2025-03-10,10:30:00
Trinidad And Tobago,Port Of Spain,10.65,-61.5167,2025-02-14 06:00:00,24.1,Partly cloudy,12.6,ENE,1014.0,0.0,74,26.2,10.0,23.5,242.35,85.0,2.59,0.925,17.575,27.935,2,2,2025-02-14,06:00:00
Peru,Lima,-12.05,-77.05,2024-09-23 04:45:00,16.5,Clear,11.5,SW,1013.0,0.0,79,16.5,10.0,19.1,288.6,65.0,16.28,10.36,21.83,34.965,2,2,2024-09-23,04:45:00
Sweden,Stockholm,59.33,18.05,2024-09-03 14:15:00,20.3,Sunny,16.9,SSE,1024.0,0.0,56,20.3,10.0,17.8,277.0,81.5,6.9,7.9,1.6,2.7,1,1,2024-09-03,14:15:00
Russia,Moscow,55.7522,37.6156,2026-01-07 10:15:00,-5.7,Light snow,11.9,ESE,1015.0,0.24,86,-10.7,4.6,17.0,459.85,7.0,64.45,47.65,24.95,28.85,2,3,2026-01-07,10:15:00
Democratic Republic Of Congo,Kinshasa,-4.3,15.3,2025-11-23 08:15:00,22.4,Patchy rain nearby,3.6,N,1015.0,0.02,94,24.8,10.0,10.8,302.85,45.0,8.85,2.15,22.95,23.75,2,2,2025-11-23,08:15:00
Cape Verde,Praia,14.93,-23.51,2024-07-12 12:00:00,27.2,Partly cloudy,19.1,E,1016.0,0.0,74,30.1,8.0,26.3,163.6,57.9,0.2,0.4,30.9,223.3,2,3,2024-07-12,12:00:00
Latvia,Riga,56.95,24.1,2024-08-22 15:00:00,21.1,Partly cloudy,13.0,SW,1009.0,0.58,56,21.1,10.0,15.1,207.0,64.4,0.8,0.3,0.5,0.6,1,1,2024-08-22,15:00:00
Turkey,Ankara,39.9272,32.8644,2024-12-28 13:45:00,8.0,Partly cloudy,14.0,E,1018.0,0.0,66,5.6,10.0,16.2,379.25,35.0,41.07,36.445,28.86,35.15,2,3,2024-12-28,13:45:00
Malawi,Lilongwe,-13.9833,33.7833,2026-02-11 08:45:00,19.1,Light rain,3.6,WNW,1023.0,0.0,94,19.1,10.0,4.1,150.85,31.0,5.15,1.15,5.45,5.45,1,1,2026-02-11,08:45:00
Egypt,Cairo,30.05,31.25,2024-05-19 17:00:00,39.0,Sunny,15.1,NNW,1010.0,0.0,13,38.5,6.0,41.5,195.3,104.4,2.5,3.2,39.1,211.3,2,4,2024-05-19,17:00:00
Luxembourg,Luxembourg,49.6117,6.13,2025-11-21 08:15:00,0.2,Light snow,6.1,NNE,1017.0,0.0,93,-1.8,8.0,11.3,177.85,28.0,18.55,1.45,11.55,15.25,1,1,2025-11-21,08:15:00
Panama,Panama City,8.97,-79.53,2024-06-22 08:45:00,27.2,Moderate rain,3.6,NNW,1011.0,0.0,89,31.8,10.0,6.6,1255.0,0.6,28.1,16.7,31.8,33.2,2,3,2024-06-22,08:45:00
Slovakia,Bratislava,48.15,17.1167,2024-12-30 11:00:00,3.3,Sunny,8.3,WNW,1030.0,0.0,75,1.1,10.0,10.7,534.65,32.0,26.64,5.735,48.655,53.65,3,6,2024-12-30,11:00:00
Hungary,Budapest,47.5,19.0833,2025-05-04 10:45:00,21.1,Patchy light rain with thunder,16.2,W,1007.0,0.0,56,21.1,10.0,18.6,262.7,81.0,5.365,1.11,15.91,27.565,2,2,2025-05-04,10:45:00
Ukraine,Kyiv,50.43,30.52,2024-06-20 16:45:00,21.7,Partly Cloudy,24.5,NW,1017.0,0.0,43,21.7,10.0,30.1,161.9,90.1,0.4,0.2,0.5,0.6,1,1,2024-06-20,16:45:00
Afghanistan,Kabul,34.5167,69.1833,2024-11-04 13:30:00,22.7,Sunny,5.8,S,1013.0,0.0,16,22.4,10.0,6.6,789.95,89.0,11.47,10.73,18.315,32.19,2,2,2024-11-04,13:30:00
Palau,Koror,7.3333,134.4833,2025-10-03 15:45:00,28.4,Partly cloudy,3.6,ESE,1010.0,0.0,79,31.6,21.0,10.8,77.85,25.0,2.45,1.55,2.55,3.35,1,1,2025-10-03,15:45:00
Oman,Muscat,23.61,58.59,2024-07-15 17:00:00,34.5,Sunny,13.3,E,995.0,0.0,61,44.1,10.0,16.7,207.0,75.8,0.8,1.0,54.7,177.3,3,7,2024-07-15,17:00:00
Afghanistan,Kabul,34.52,69.18,2024-09-24 14:15:00,32.1,Sunny,7.2,E,1005.0,0.0,6,29.8,10.0,8.3,394.05,118.0,4.625,16.095,14.985,27.935,1,2,2024-09-24,14:15:00
Malta,Valletta,35.8997,14.5147,2025-12-09 08:45:00,14.0,Sunny,9.7,SSE,1025.0,0.0,94,13.5,10.0,12.7,151.85,67.0,7.75,2.15,8.75,12.15,1,1,2025-12-09,08:45:00
Lesotho,Maseru,-29.3167,27.4833,2025-04-24 11:00:00,16.2,Thundery outbreaks in nearby,27.0,NNE,1018.0,0.01,55,16.2,9.0,31.1,264.55,62.0,4.255,7.03,5.55,5.92,1,1,2025-04-24,11:00:00
Slovenia,Ljubljana,46.0553,14.5144,2024-10-03 11:30:00,12.3,Moderate rain,6.5,NE,1010.0,2.5,88,12.0,7.0,7.8,314.5,46.0,17.76,0.925,11.84,14.06,1,1,2024-10-03,11:30:00
Tuvalu,Funafuti,-8.5167,179.2167,2025-02-15 22:15:00,29.1,Partly cloudy,16.9,N,1012.0,0.0,75,32.8,10.0,23.7,170.2,24.0,0.0,0.555,11.655,18.5,1,1,2025-02-15,22:15:00
Cyprus,Nicosia,35.1667,33.3667,2026-01-29 09:00:00,11.2,Partly Cloudy,4.0,SSW,1017.0,0.0,82,11.4,10.0,5.0,147.85,39.0,8.85,1.25,13.35,14.85,1,2,2026-01-29,09:00:00
Liberia,Monrovia,6.3106,-10.8047,2025-03-15 09:45:00,28.4,Partly cloudy,3.6,WNW,1013.0,0.0,79,33.4,10.0,3.8,453.25,64.0,4.995,2.035,40.515,65.675,3,4,2025-03-15,09:45:00
Namibia,Windhoek,-22.57,17.08,2024-09-04 14:00:00,25.2,Sunny,13.0,NNW,1016.0,0.0,7,23.9,10.0,14.9,201.9,70.1,0.1,0.4,2.9,4.8,1,1,2024-09-04,14:00:00
Lesotho,Maseru,-29.3167,27.4833,2025-08-18 10:15:00,16.3,Sunny,23.0,NNE,1025.0,0.0,43,16.3,10.0,26.5,614.2,64.0,12.21,32.005,41.625,41.81,3,4,2025-08-18,10:15:00
Poland,Warsaw,52.25,21.0,2026-01-24 08:15:00,-6.9,Light snow,14.4,E,1011.0,0.08,86,-12.8,6.0,22.1,253.85,60.0,8.15,10.75,14.85,17.95,1,2,2026-01-24,08:15:00
Mexico,Mexico City,19.4285,-99.1277,2026-04-04 00:30:00,19.3,Partly cloudy,4.0,NNW,1025.0,0.0,40,19.3,19.0,4.6,807.85,39.0,55.65,22.55,43.65,44.15,3,5,2026-04-04,00:30:00
Mali,Bamako,12.65,-8.0,2026-03-05 06:30:00,26.1,Clear,15.5,N,1012.0,0.0,20,25.3,10.0,29.8,195.85,38.0,3.75,1.15,40.55,111.65,3,4,2026-03-05,06:30:00
Yemen,Sanaa,15.3547,44.2067,2025-04-16 12:00:00,24.0,Sunny,21.6,ENE,1015.0,0.0,27,23.9,10.0,24.8,251.6,75.0,0.37,0.37,37.0,292.855,2,4,2025-04-16,12:00:00
Bolivia,National,-11.18,-67.08,2024-06-11 10:00:00,30.5,Sunny,6.1,NNE,1015.0,0.0,48,32.0,10.0,7.2,146.9,5.7,0.1,0.0,1.6,1.8,1,1,2024-06-11,10:00:00
Chile,Santiago,-33.45,-70.6667,2024-12-17 08:15:00,18.8,Cloudy,5.0,WSW,1014.0,0.0,42,18.8,10.0,5.8,804.75,115.0,23.31,93.055,44.215,45.88,3,5,2024-12-17,08:15:00
Switzerland,Bern,46.9167,7.4667,2024-11-09 10:00:00,11.0,Sunny,3.6,NE,1025.0,0.0,61,11.0,10.0,10.8,358.9,22.0,37.555,0.925,26.27,34.41,2,3,2024-11-09,10:00:00
Mongolia,Ulaanbaatar,47.9167,106.9167,2025-12-31 15:00:00,-17.9,Sunny,3.6,ENE,1025.0,0.0,65,-20.7,8.0,7.6,1637.85,67.0,17.55,28.35,32.75,34.75,2,3,2025-12-31,15:00:00
Congo,Brazzaville,-4.2592,15.2847,2025-05-17 09:45:00,27.2,Patchy rain nearby,3.6,WNW,1013.0,0.02,79,29.5,8.0,10.8,501.35,49.0,15.725,0.555,61.235,61.42,3,8,2025-05-17,09:45:00
Guatemala,Guatemala City,14.62,-90.53,2024-05-16 08:00:00,21.0,Partly cloudy,3.6,N,1021.0,0.27,83,21.0,10.0,5.0,1976.0,63.7,21.4,26.0,152.7,212.3,5,10,2024-05-16,08:00:00
Malawi,Lilongwe,-13.9833,33.7833,2025-12-25 09:00:00,21.1,Partly cloudy,10.1,NW,1017.0,0.86,88,21.1,10.0,13.1,258.85,54.0,2.75,1.35,7.75,8.25,1,1,2025-12-25,09:00:00
Greece,Athens,37.98,23.72,2024-07-03 16:00:00,31.0,Partly cloudy,28.1,S,999.0,0.54,46,34.7,10.0,35.3,196.9,104.4,2.2,4.3,15.4,28.5,1,2,2024-07-03,16:00:00
Cameroon,Ngaoundere,7.32,13.58,2024-07-10 14:00:00,21.5,Light rain shower,3.6,SSW,1013.0,0.46,86,21.5,10.0,4.9,367.2,9.8,0.5,0.1,0.5,0.6,1,1,2024-07-10,14:00:00
Australia,Canberra,-35.28,149.22,2024-09-23 19:45:00,15.2,Clear,6.8,W,1020.0,0.0,51,15.2,10.0,14.4,216.45,54.0,3.145,0.925,4.07,6.105,1,1,2024-09-23,19:45:00
Pakistan,Islamabad,33.7,73.1667,2025-08-31 13:00:00,28.8,Patchy rain nearby,7.6,SSE,1004.0,0.69,69,32.4,9.0,12.2,876.9,83.0,37.185,23.31,45.325,46.065,3,5,2025-08-31,13:00:00
Antigua And Barbuda,Saint John's,17.12,-61.85,2024-07-29 08:15:00,28.4,Light rain shower,27.4,ESE,1017.0,0.17,74,32.2,10.0,35.9,180.2,39.7,0.7,0.6,1.2,3.9,1,1,2024-07-29,08:15:00
Angola,Luanda,-8.8383,13.2344,2025-12-25 08:00:00,25.2,Partly cloudy,12.2,ESE,1011.0,0.0,83,27.3,10.0,15.6,135.85,38.0,4.75,4.65,10.55,12.95,1,1,2025-12-25,08:00:00
Finland,Helsinki,60.1756,24.9342,2026-03-14 08:45:00,6.4,Partly Cloudy,19.4,S,1006.0,0.0,81,2.9,10.0,40.1,186.85,63.0,8.75,1.95,11.05,13.25,1,1,2026-03-14,08:45:00
Mauritius,Port Louis,-20.1619,57.4989,2024-11-15 13:00:00,28.3,Partly cloudy,12.6,E,1015.0,0.02,66,29.8,10.0,14.5,197.95,51.0,2.035,2.22,9.99,14.8,1,1,2024-11-15,13:00:00
Swaziland,Mbabane,-26.3167,31.1333,2024-10-23 11:15:00,17.7,Light rain shower,5.0,SE,1019.0,0.19,82,17.8,10.0,6.3,434.75,75.0,3.885,7.03,18.315,26.455,2,2,2024-10-23,11:15:00
Lithuania,Vilnius,54.68,25.32,2024-05-20 17:45:00,19.0,Moderate or heavy rain shower,20.2,S,1015.0,0.56,64,19.0,10.0,27.4,193.6,93.0,1.7,1.0,0.9,1.3,1,1,2024-05-20,17:45:00
Ireland,Dublin,53.33,-6.25,2024-05-16 15:00:00,19.0,Partly cloudy,15.1,NE,1007.0,0.0,64,19.0,10.0,22.3,198.6,88.7,8.7,4.8,3.1,3.9,1,1,2024-05-16,15:00:00
Bosnia And Herzegovina,Sarajevo,43.85,18.3833,2025-10-13 10:15:00,8.3,Partly cloudy,6.1,NNW,1025.0,0.0,87,7.5,10.0,7.1,315.85,43.0,16.95,17.25,36.05,41.05,2,4,2025-10-13,10:15:00
Bosnia And Herzegovina,Sarajevo,43.85,18.38,2024-08-21 14:15:00,27.4,Partly cloudy,3.6,N,1012.0,0.1,62,28.1,10.0,7.5,230.3,81.5,2.0,15.5,9.6,10.1,1,1,2024-08-21,14:15:00
Ethiopia,Addis Ababa,9.0333,38.7,2025-12-07 10:00:00,17.3,Patchy rain nearby,14.8,ESE,1028.0,0.03,59,17.3,10.0,17.0,414.85,47.0,6.15,2.25,28.05,40.15,2,3,2025-12-07,10:00:00
Madagascar,Antananarivo,-18.9167,47.5167,2025-12-11 10:15:00,26.2,Partly cloudy,4.0,SSE,1019.0,0.0,61,27.0,10.0,4.6,227.85,47.0,4.25,1.35,12.45,12.45,1,2,2025-12-11,10:15:00
Hungary,Bogot,47.25,16.8333,2026-01-15 08:15:00,-2.7,Freezing fog,5.8,SSW,1021.0,0.0,100,-5.0,0.3,12.1,430.85,17.0,20.55,1.35,40.15,41.05,2,4,2026-01-15,08:15:00
Marshall Islands,Majuro,7.1,171.3833,2025-10-08 20:15:00,29.0,Partly cloudy,9.4,NE,1010.0,0.0,84,32.8,24.0,12.7,84.85,23.0,0.85,0.95,4.45,6.25,1,1,2025-10-08,20:15:00
Uganda,Kampala,0.32,32.57,2024-07-27 15:30:00,28.0,Sunny,18.0,S,1011.0,0.0,36,27.4,10.0,20.7,400.5,80.8,0.4,0.4,11.2,13.1,1,1,2024-07-27,15:30:00
Maldives,Dhidhdhoo,6.8833,73.1,2026-03-01 11:30:00,27.3,Partly Cloudy,13.7,N,1012.0,0.0,66,29.4,10.0,18.5,124.7,72.0,1.0,1.0,8.3,11.7,1,1,2026-03-01,11:30:00
Thailand,Bangkok,13.75,100.5167,2025-09-13 15:15:00,34.2,Overcast,11.2,S,1007.0,0.0,56,39.9,10.0,12.9,2512.3,54.0,91.02,66.045,80.475,81.215,4,10,2025-09-13,15:15:00
Egypt,Cairo,30.05,31.25,2024-09-06 15:15:00,33.1,Partly cloudy,13.0,NW,1009.0,0.0,39,31.2,10.0,15.7,362.6,114.0,17.76,67.155,45.325,60.68,3,5,2024-09-06,15:15:00
Cambodia,Phnom Penh,11.55,104.9167,2024-12-23 17:15:00,28.4,Sunny,11.5,NNE,1007.0,0.0,52,29.4,10.0,18.6,597.55,105.0,3.33,9.435,31.265,31.82,2,3,2024-12-23,17:15:00
El Salvador,San Salvador,13.71,-89.2,2024-08-12 06:30:00,20.8,Fog,5.8,NNW,1013.0,0.0,97,20.8,0.0,9.9,273.7,4.2,3.0,3.5,9.0,16.3,1,1,2024-08-12,06:30:00
Zimbabwe,Harare,-17.8178,31.0447,2025-11-14 09:30:00,22.6,Patchy rain nearby,20.2,ENE,1018.0,0.03,58,24.7,10.0,23.4,254.85,60.0,2.45,1.15,8.45,8.55,1,1,2025-11-14,09:30:00
Mauritania,Nouakchott,18.09,-15.98,2024-06-21 13:45:00,33.9,Sunny,19.4,NNE,1011.0,0.0,28,33.3,10.0,40.8,217.0,75.8,0.6,0.8,154.1,941.8,5,10,2024-06-21,13:45:00
Belgium,'S-Gravenbrakel,50.6,4.1333,2026-02-02 08:00:00,4.2,Partly cloudy,9.0,SE,998.0,0.01,100,1.9,10.0,14.6,178.85,35.0,7.45,1.05,9.35,10.75,1,1,2026-02-02,08:00:00
Afghanistan,Kabul,34.5167,69.1833,2026-03-16 11:15:00,9.5,Sunny,3.6,ENE,1013.0,0.0,27,9.5,10.0,10.8,609.85,81.0,4.55,1.55,4.35,5.75,1,1,2026-03-16,11:15:00
Gambia,Banjul,13.4531,-16.5775,2025-01-11 09:45:00,25.4,Sunny,21.2,ENE,1013.0,0.0,24,25.5,9.0,39.3,338.55,52.0,2.96,3.145,124.135,347.245,4,10,2025-01-11,09:45:00
Cape Verde,Praia,14.9315,-23.5125,2024-12-30 09:00:00,26.2,Partly cloudy,19.8,NNE,1014.0,0.0,61,28.4,10.0,24.3,275.65,69.0,1.665,1.295,32.375,78.995,2,3,2024-12-30,09:00:00
Argentina,Buenos Aires,-34.59,-58.67,2024-06-17 11:00:00,13.6,Sunny,11.9,NE,1016.0,0.0,67,12.7,10.0,14.5,320.4,20.9,6.4,3.1,2.0,4.3,1,1,2024-06-17,11:00:00
Suriname,Paramaribo,5.8333,-55.1667,2025-04-29 05:45:00,24.4,Clear,8.3,E,1010.0,0.0,94,27.0,10.0,15.7,281.2,46.0,1.85,1.295,24.235,62.9,2,3,2025-04-29,05:45:00
Poland,Warsaw,52.25,21.0,2026-03-18 07:45:00,3.0,Cloudy,9.4,NNE,1030.0,0.0,93,0.4,10.0,14.8,282.85,24.0,16.75,10.25,24.75,28.85,2,3,2026-03-18,07:45:00
Swaziland,Mbabane,-26.32,31.13,2024-08-14 14:30:00,30.0,Sunny,28.1,W,1014.0,0.0,4,27.8,10.0,31.1,227.0,100.1,1.1,5.4,8.1,21.2,1,1,2024-08-14,14:30:00
Cyprus,Nicosia,35.17,33.37,2024-08-10 15:30:00,33.4,Sunny,6.1,WNW,1007.0,0.0,40,35.1,10.0,7.1,230.3,104.4,0.2,1.3,14.1,24.7,1,2,2024-08-10,15:30:00
Panama,Panama City,8.9667,-79.5333,2025-11-17 02:15:00,24.3,Partly cloudy,6.1,NNW,1010.0,0.87,94,26.9,10.0,10.2,570.85,44.0,10.95,3.75,3.45,3.55,1,1,2025-11-17,02:15:00
Jordan,Amman,31.95,35.93,2024-06-04 17:15:00,36.0,Mist,22.0,W,1011.0,0.0,21,34.4,5.0,26.3,227.0,197.4,3.6,5.4,21.6,44.0,2,2,2024-06-04,17:15:00
Sri Lanka,Colombo,6.9319,79.8478,2026-03-12 12:00:00,31.2,Sunny,15.5,W,1010.0,0.0,66,36.9,10.0,18.2,893.85,87.0,26.35,25.25,34.25,35.15,2,3,2026-03-12,12:00:00
Iceland,Reykjavik,64.15,-21.95,2026-02-22 06:45:00,3.0,Partly Cloudy,24.5,ENE,992.0,0.0,60,-2.0,10.0,41.8,163.85,81.0,2.25,2.25,2.15,2.85,1,1,2026-02-22,06:45:00
Thailand,Bangkok,13.75,100.5167,2024-10-05 16:45:00,33.3,Partly cloudy,8.3,NNE,1007.0,0.04,53,40.3,10.0,10.7,1006.4,72.0,55.5,39.22,46.435,67.155,3,5,2024-10-05,16:45:00
Cuba,Havana,23.1319,-82.3642,2026-02-27 01:45:00,21.2,Partly Cloudy,9.7,ESE,1016.0,0.0,94,21.2,8.0,18.1,243.85,55.0,6.95,6.45,8.15,9.35,1,1,2026-02-27,01:45:00
Bahamas,Nassau,25.0833,-77.35,2025-07-18 04:30:00,29.2,Partly cloudy,31.0,ESE,1020.0,0.0,75,38.8,10.0,42.2,203.5,38.0,0.925,0.555,17.205,52.17,2,2,2025-07-18,04:30:00
Russia,Moscow,55.7522,37.6156,2025-12-16 10:15:00,-2.7,Moderate rain,12.2,S,1018.0,1.06,93,-7.1,4.9,21.1,676.85,0.0,61.25,79.65,47.95,56.75,3,5,2025-12-16,10:15:00
Chad,N'djamena,12.1131,15.0492,2024-12-22 11:15:00,27.3,Sunny,18.4,NNE,1015.0,0.0,17,25.4,10.0,21.1,260.85,61.0,0.74,0.74,157.25,653.05,5,10,2024-12-22,11:15:00
Oman,Muscat,23.6133,58.5933,2025-02-28 14:00:00,25.2,Sunny,23.4,NNW,1015.0,0.0,57,26.2,10.0,26.9,373.7,108.0,13.32,19.24,109.705,498.02,4,10,2025-02-28,14:00:00
Bhutan,Thimphu,27.48,89.6,2024-06-01 20:15:00,11.0,Patchy rain nearby,3.6,WNW,1012.0,0.05,92,11.0,10.0,10.8,293.7,70.1,0.9,1.1,14.7,18.0,1,2,2024-06-01,20:15:00
Estonia,Tallinn,59.4339,24.7281,2026-02-07 08:45:00,-9.8,Freezing fog,11.5,ENE,1014.0,0.0,92,-15.5,10.0,21.0,281.85,43.0,22.65,4.45,11.55,12.55,1,1,2026-02-07,08:45:00
Brazil,Bras,-2.0833,-58.1667,2025-08-30 03:45:00,25.7,Clear,4.3,NW,1009.0,0.0,60,26.8,10.0,8.9,277.5,34.0,2.775,0.185,15.91,16.65,2,2,2025-08-30,03:45:00
Burkina Faso,Ouagadougou,12.3703,-1.5247,2024-11-24 08:30:00,27.2,Mist,16.9,ENE,1016.0,0.0,26,25.5,6.0,25.2,427.35,61.0,4.07,1.665,61.235,254.19,3,8,2024-11-24,08:30:00
Saint Vincent And The Grenadines,Kingstown,13.1333,-61.2167,2025-01-22 06:15:00,26.6,Clear,35.6,E,1015.0,0.0,72,28.8,10.0,47.9,192.635,85.0,0.72,0.9,14.043,22.864,1,2,2025-01-22,06:15:00
Liechtenstein,Vaduz,47.1333,9.5167,2025-11-28 08:30:00,-1.7,Partly cloudy,12.6,S,1023.0,0.0,100,-6.0,10.0,26.5,124.85,68.0,3.85,1.15,3.55,3.85,1,1,2025-11-28,08:30:00
Slovakia,Bratislava,48.15,17.12,2024-06-16 15:45:00,23.2,Partly cloudy,11.2,NNW,1012.0,0.0,50,25.0,10.0,20.8,168.6,91.6,0.8,0.4,2.7,2.9,1,1,2024-06-16,15:45:00
Canada,Ottawa,45.4167,-75.7,2025-09-09 04:15:00,6.2,Clear,5.0,SE,1027.0,0.0,93,5.4,24.0,10.6,730.75,23.0,32.56,4.255,24.05,24.235,2,3,2025-09-09,04:15:00
Papua New Guinea,Port Moresby,-9.4647,147.1925,2026-03-03 16:30:00,27.3,Patchy light drizzle,15.5,NW,1004.0,0.7,75,30.3,5.0,23.5,146.85,25.0,3.05,1.05,11.75,13.15,1,1,2026-03-03,16:30:00
Egypt,Cairo,30.05,31.25,2024-07-20 15:45:00,37.1,Sunny,15.1,NW,1004.0,0.0,24,35.8,10.0,22.3,205.3,151.6,1.8,8.8,15.8,24.9,2,2,2024-07-20,15:45:00
Italy,Rome,41.9,12.4833,2024-12-13 12:00:00,10.2,Partly cloudy,8.3,NE,1026.0,0.29,82,9.2,10.0,12.0,451.4,50.0,27.195,2.405,21.46,24.05,2,2,2024-12-13,12:00:00
Turkey,Ankara,39.9272,32.8644,2025-04-25 12:00:00,9.0,Partly cloudy,16.9,WNW,1007.0,0.08,93,6.5,10.0,19.5,308.95,70.0,21.645,12.025,14.985,17.39,1,2,2025-04-25,12:00:00
Ecuador,Quito,-0.2167,-78.5,2025-05-29 03:45:00,9.6,Clear,7.2,SE,1019.0,0.0,81,8.7,10.0,12.8,1607.65,24.0,7.215,8.14,4.995,4.995,1,1,2025-05-29,03:45:00
Switzerland,Bern,46.92,7.47,2024-07-03 15:00:00,18.1,Light rain,15.1,WNW,1012.0,1.66,64,18.1,10.0,22.3,156.9,63.7,1.2,0.3,0.5,0.5,1,1,2024-07-03,15:00:00
Finland,Helsinki,60.1756,24.9342,2025-02-10 12:30:00,-1.7,Partly cloudy,7.2,W,1042.0,0.0,86,-4.5,10.0,10.0,486.55,40.0,33.3,6.66,20.35,27.38,2,2,2025-02-10,12:30:00
Syria,Damascus,33.5,36.3,2025-09-14 11:00:00,25.2,Sunny,10.8,SSE,1016.0,0.0,57,24.6,10.0,12.4,257.15,67.0,20.905,108.965,33.855,45.51,2,3,2025-09-14,11:00:00
Bulgaria,Sofia,42.6833,23.3167,2025-11-11 09:45:00,8.2,Moderate rain,10.1,WNW,1016.0,0.7,93,6.5,8.0,11.6,209.85,24.0,12.05,4.05,7.95,9.35,1,1,2025-11-11,09:45:00
Burkina Faso,Ouagadougou,12.37,-1.52,2024-09-28 10:00:00,28.0,Partly cloudy,14.0,SW,1015.0,0.0,74,30.4,10.0,16.2,418.1,64.0,1.11,0.925,17.02,35.52,2,2,2024-09-28,10:00:00
Saint Lucia,Castries,14.0,-61.0,2024-12-28 06:15:00,24.1,Partly cloudy,12.6,ENE,1013.0,0.02,89,26.0,10.0,18.6,210.9,63.0,0.185,0.37,9.805,15.355,1,1,2024-12-28,06:15:00
Lithuania,Vilnius,54.6833,25.3167,2025-01-04 12:15:00,-2.9,Light snow,26.3,WNW,1004.0,0.02,68,-9.8,10.0,34.3,334.85,67.0,8.695,1.295,7.4,11.655,1,1,2025-01-04,12:15:00
Senegal,Dakar,14.6708,-17.4381,2025-05-30 08:45:00,22.6,Partly Cloudy,16.2,WNW,1014.0,0.0,83,24.8,10.0,25.8,266.4,78.0,3.145,2.035,62.16,234.395,3,8,2025-05-30,08:45:00
Chile,Santiago,-33.45,-70.6667,2025-04-06 05:00:00,13.1,Overcast,4.3,SW,1016.0,0.0,82,13.5,10.0,5.0,936.1,10.0,53.65,85.655,50.32,55.87,3,6,2025-04-06,05:00:00
Congo,Brazzaville,-4.2592,15.2847,2026-03-18 07:30:00,23.5,Overcast,4.0,W,1012.0,0.0,90,25.8,10.0,4.6,213.85,34.0,3.55,1.75,8.75,9.35,1,1,2026-03-18,07:30:00
Papua New Guinea,Port Moresby,-9.4647,147.1925,2024-11-20 18:45:00,28.4,Mist,10.4,SSE,1007.0,1.52,79,34.4,10.0,15.9,273.8,31.0,2.22,0.555,8.51,9.99,1,1,2024-11-20,18:45:00
Chad,N'djamena,12.1131,15.0492,2025-12-24 08:00:00,17.1,Sunny,10.1,NE,1011.0,0.0,63,17.1,6.0,17.3,186.85,32.0,3.55,1.55,25.25,89.05,2,3,2025-12-24,08:00:00
Iraq,Baghdad,33.3386,44.3939,2025-12-19 10:15:00,14.4,Sunny,39.6,NNW,1016.0,0.0,31,11.8,10.0,49.9,370.85,27.0,23.35,21.75,6.05,8.35,1,1,2025-12-19,10:15:00
Armenia,Yerevan,40.18,44.51,2024-08-22 16:00:00,37.3,Partly cloudy,6.8,S,1007.0,0.0,15,36.1,10.0,12.0,196.9,133.0,1.0,0.8,6.7,10.1,1,1,2024-08-22,16:00:00
Australia,Canberra,-35.2833,149.2167,2025-08-22 18:00:00,15.4,Overcast,6.8,NE,1019.0,0.0,63,15.4,10.0,12.3,209.05,45.0,9.99,4.255,4.81,4.81,1,1,2025-08-22,18:00:00
Andorra,Andorra La Vella,42.5,1.5167,2025-04-03 11:00:00,3.1,Sunny,12.6,S,1016.0,0.0,69,-0.2,10.0,23.1,195.653,88.0,5.336,0.323,7.115,10.51,1,1,2025-04-03,11:00:00
Georgia,Tbilisi,41.725,44.7908,2026-02-11 10:45:00,-0.9,Patchy light snow,5.0,SSE,1018.0,0.59,93,-2.6,2.2,5.8,196.85,49.0,7.85,5.05,3.15,3.65,1,1,2026-02-11,10:45:00
Algeria,Algiers,36.7631,3.0506,2025-12-14 08:15:00,14.2,Partly cloudy,13.3,SE,1020.0,0.0,77,13.3,10.0,26.6,168.85,33.0,24.95,11.25,9.15,11.75,1,1,2025-12-14,08:15:00
Bosnia And Herzegovina,Sarajevo,43.85,18.3833,2025-07-08 11:00:00,28.2,Partly cloudy,13.7,S,1004.0,0.61,40,33.2,10.0,18.2,229.4,84.0,3.145,2.035,8.325,11.655,1,1,2025-07-08,11:00:00
Djibouti,Djibouti,11.595,43.1481,2026-04-04 09:30:00,28.2,Patchy rain nearby,14.4,ESE,1013.0,0.01,77,32.2,10.0,16.6,182.85,68.0,2.65,2.15,13.55,19.85,1,2,2026-04-04,09:30:00
Poland,Warsaw,52.25,21.0,2025-04-25 11:00:00,11.3,Partly cloudy,17.3,NNE,1015.0,0.02,82,9.3,10.0,21.3,288.6,72.0,10.73,6.66,12.95,17.39,1,2,2025-04-25,11:00:00
Algeria,Algiers,36.7631,3.0506,2024-11-06 10:00:00,21.1,Sunny,3.6,N,1023.0,0.0,61,21.1,10.0,10.8,432.9,21.0,88.985,28.49,63.455,112.11,3,8,2024-11-06,10:00:00
Ethiopia,Addis Ababa,9.0333,38.7,2025-03-14 12:45:00,23.1,Sunny,14.0,ESE,1026.0,0.0,27,22.6,10.0,16.2,536.5,83.0,1.11,0.555,24.05,44.77,2,3,2025-03-14,12:45:00
Guatemala,Guatemala City,14.6211,-90.5269,2025-03-27 03:30:00,17.4,Clear,5.4,NNW,1023.0,0.0,83,17.4,10.0,9.5,532.8,66.0,2.59,0.74,12.95,14.43,1,2,2025-03-27,03:30:00
Switzerland,Bern,46.9167,7.4667,2024-12-18 11:30:00,7.2,Partly cloudy,4.3,S,1025.0,0.0,49,6.8,10.0,8.7,331.15,39.0,48.285,1.11,10.915,16.28,1,1,2024-12-18,11:30:00
Luxembourg,Luxembourg,49.6117,6.13,2025-12-01 08:30:00,0.3,Freezing fog,8.6,SSE,1018.0,0.0,100,-2.6,0.2,16.4,176.85,32.0,18.75,1.55,11.35,13.05,1,1,2025-12-01,08:30:00
Dominica,Roseau,15.3,-61.4,2026-03-22 02:30:00,24.9,Patchy rain nearby,11.5,SE,1011.0,0.01,77,26.8,10.0,15.4,116.85,71.0,1.35,1.15,6.85,10.65,1,1,2026-03-22,02:30:00
Albania,Tirana,41.3275,19.8189,2025-10-18 09:45:00,15.3,Overcast,3.6,N,1019.0,0.39,88,15.3,7.0,10.8,144.85,44.0,9.15,2.95,7.15,9.05,1,1,2025-10-18,09:45:00
Liechtenstein,Vaduz,47.1333,9.5167,2025-04-18 11:15:00,8.3,Partly cloudy,3.6,N,1015.0,0.02,87,8.4,10.0,10.8,283.05,61.0,11.655,0.555,11.84,12.95,1,1,2025-04-18,11:15:00
Cambodia,Phnom Penh,11.55,104.92,2024-06-02 21:00:00,32.0,Partly cloudy,3.6,W,1009.0,0.02,71,37.8,10.0,7.0,801.1,18.1,11.7,3.2,19.2,31.1,2,2,2024-06-02,21:00:00
Guyana,Georgetown,6.8,-58.1667,2025-11-03 04:15:00,24.3,Moderate rain,9.7,ENE,1010.0,1.1,100,26.5,10.0,16.7,132.85,53.0,2.15,1.45,5.85,8.95,1,1,2025-11-03,04:15:00
Bahamas,Nassau,25.08,-77.35,2024-09-18 06:45:00,27.3,Partly cloudy,15.5,SE,1014.0,0.0,84,31.2,10.0,20.9,253.45,52.0,3.145,4.07,9.25,15.355,1,1,2024-09-18,06:45:00
Namibia,Windhoek,-22.5717,17.0822,2024-12-10 12:45:00,34.2,Sunny,25.2,E,1011.0,0.0,16,32.2,10.0,29.0,262.7,107.0,0.37,1.48,14.985,15.17,1,2,2024-12-10,12:45:00
Bulgaria,Sofia,42.6833,23.3167,2025-02-06 12:15:00,2.3,Overcast,4.3,N,1032.0,0.0,69,1.3,8.0,5.0,469.9,51.0,27.75,13.69,44.955,51.985,3,5,2025-02-06,12:15:00
Burundi,Bujumbura,-3.3761,29.36,2025-08-17 10:15:00,26.6,Patchy rain nearby,3.6,WSW,1014.0,0.05,49,27.1,10.0,10.8,888.0,57.0,6.845,1.665,49.21,49.95,3,6,2025-08-17,10:15:00
France,Paris,48.8667,2.3333,2025-09-05 09:45:00,15.0,Partly cloudy,10.1,W,1022.0,0.0,88,14.6,10.0,11.6,440.3,25.0,61.975,2.035,11.1,14.8,1,1,2025-09-05,09:45:00
Trinidad And Tobago,Port Of Spain,10.65,-61.5167,2025-08-07 04:30:00,24.3,Light rain shower,13.7,ENE,1013.0,0.12,100,26.7,10.0,23.7,299.7,45.0,3.885,0.925,7.585,18.87,1,1,2025-08-07,04:30:00
Afghanistan,Kabul,34.5167,69.1833,2026-01-02 11:45:00,3.8,Sunny,4.0,SSW,1022.0,0.0,29,3.2,10.0,4.6,738.85,87.0,8.15,2.95,7.55,11.15,1,1,2026-01-02,11:45:00
Slovenia,Ljubljana,46.0553,14.5144,2025-01-08 11:00:00,7.3,Partly cloudy,14.4,WSW,1012.0,0.03,87,4.7,10.0,16.6,466.2,27.0,54.945,2.775,46.99,58.83,3,5,2025-01-08,11:00:00
Saint Kitts And Nevis,Basseterre,17.3,-62.7167,2025-06-01 04:45:00,28.2,Patchy rain nearby,27.7,ESE,1018.0,0.06,79,32.9,9.0,40.5,210.167,40.0,0.544,0.181,42.215,107.982,3,5,2025-06-01,04:45:00
Brazil,Bras,-2.0833,-58.1667,2025-02-02 06:15:00,23.8,Cloudy,3.6,ENE,1009.0,0.0,81,25.8,10.0,5.5,270.1,31.0,0.37,0.185,11.1,18.685,1,1,2025-02-02,06:15:00
Sudan,Juba,12.15,24.45,2024-06-08 16:15:00,39.0,Sunny,20.2,WSW,1006.0,0.0,21,38.7,10.0,23.2,227.0,37.9,0.1,0.2,18.4,75.1,2,2,2024-06-08,16:15:00
Saint Kitts And Nevis,Basseterre,17.3,-62.72,2024-09-01 08:00:00,28.8,Patchy rain nearby,27.7,ESE,1014.0,0.01,74,33.1,10.0,39.5,173.6,28.3,0.6,0.2,1.5,4.1,1,1,2024-09-01,08:00:00
Indonesia,Laos,-8.1826,114.3188,2026-02-12 13:45:00,26.8,Light rain shower,3.6,ESE,1009.0,1.95,87,30.8,10.0,10.8,351.85,31.0,13.05,3.35,23.75,24.05,2,2,2026-02-12,13:45:00
Philippines,Manila,14.6042,120.9822,2025-07-18 16:30:00,28.3,Light rain,19.1,W,998.0,0.9,94,33.9,9.0,29.6,693.75,30.0,41.07,40.145,54.02,56.055,3,7,2025-07-18,16:30:00
Latvia,Riga,56.95,24.1,2024-10-15 12:30:00,11.3,Partly cloudy,18.4,NNW,1015.0,0.65,76,9.2,10.0,24.5,338.55,43.0,25.53,2.775,11.285,17.02,1,1,2024-10-15,12:30:00
Malawi,Lilongwe,-13.9833,33.7833,2026-01-07 09:15:00,23.2,Patchy rain nearby,8.3,W,1016.0,0.02,89,25.1,10.0,9.5,197.85,45.0,5.45,1.05,16.15,16.25,2,2,2026-01-07,09:15:00
Pakistan,Islamabad,33.7,73.1667,2025-08-02 13:30:00,31.5,Patchy rain nearby,9.0,SSE,1001.0,0.24,61,36.4,9.0,12.6,1134.05,97.0,39.405,25.345,85.1,94.165,4,10,2025-08-02,13:30:00
Sweden,Stockholm,59.3333,18.05,2024-10-19 11:30:00,14.2,Sunny,18.4,S,1022.0,0.0,77,12.8,10.0,23.0,345.95,54.0,15.725,2.775,12.95,20.535,1,2,2024-10-19,11:30:00
Niger,Niamey,13.5167,2.1167,2024-10-18 10:30:00,32.1,Sunny,11.2,WSW,1014.0,0.0,56,34.1,10.0,12.9,442.15,65.0,2.59,0.555,21.83,82.51,2,2,2024-10-18,10:30:00
Croatia,Zagreb,45.8,16.0,2025-11-03 09:00:00,10.2,Light rain,3.6,NW,1019.0,0.02,87,10.5,10.0,3.8,133.85,75.0,6.95,1.05,2.75,3.05,1,1,2025-11-03,09:00:00
Armenia,Yerevan,40.1811,44.5136,2025-06-21 12:45:00,31.2,Sunny,8.6,SW,1009.0,0.0,26,30.5,10.0,9.9,275.65,60.0,6.475,0.925,8.325,10.36,1,1,2025-06-21,12:45:00
Nicaragua,Managua,12.1508,-86.2683,2025-03-22 03:30:00,22.6,Clear,24.5,ENE,1012.0,0.0,69,24.8,10.0,37.1,379.25,100.0,2.035,5.18,10.73,13.32,1,1,2025-03-22,03:30:00
Paraguay,Aguaray,-19.85,-58.5167,2025-12-18 04:00:00,23.4,Partly Cloudy,4.3,NW,1007.0,0.0,74,25.3,10.0,7.8,167.678,39.0,2.378,0.878,9.578,9.778,1,1,2025-12-18,04:00:00
Dominican Republic,Santo Domingo,18.4667,-69.9,2026-02-02 03:00:00,22.0,Partly cloudy,24.8,N,1017.0,0.0,94,24.5,10.0,35.5,190.85,71.0,8.65,2.95,4.35,5.15,1,1,2026-02-02,03:00:00
Tuvalu,Funafuti,-8.5167,179.2167,2024-10-06 21:15:00,28.4,Overcast,19.1,ESE,1012.0,0.11,94,32.5,10.0,25.9,185.0,32.0,0.0,0.0,13.135,24.42,1,2,2024-10-06,21:15:00
Canada,Ottawa,45.4167,-75.7,2025-08-02 04:30:00,11.2,Clear,6.5,W,1025.0,0.0,87,10.7,24.0,13.6,403.3,46.0,19.24,5.735,9.99,9.99,1,1,2025-08-02,04:30:00
Georgia,Tbilisi,41.725,44.7908,2025-02-25 14:00:00,3.2,Overcast,3.6,NNE,1017.0,0.14,44,2.7,10.0,10.8,397.75,69.0,14.615,5.92,5.735,7.77,1,1,2025-02-25,14:00:00
Brazil,Bras,-2.0833,-58.1667,2025-07-01 05:00:00,22.2,Clear,3.6,ENE,1013.0,0.0,89,24.6,10.0,6.8,209.05,47.0,0.74,0.185,6.29,6.66,1,1,2025-07-01,05:00:00
Sweden,Stockholm,59.3333,18.05,2025-02-21 11:00:00,1.1,Partly cloudy,22.3,SSW,1021.0,0.01,86,-4.2,8.0,32.4,447.7,75.0,13.505,1.85,14.8,16.65,1,2,2025-02-21,11:00:00
Kuwait,Kuwait City,29.3667,47.96,2025-05-19 12:00:00,38.4,Sunny,6.8,NE,1005.0,0.0,19,37.7,10.0,13.5,486.55,44.0,57.72,21.645,151.145,623.635,5,10,2025-05-19,12:00:00
Sudan,Juba,12.15,24.45,2025-09-10 10:15:00,28.8,Sunny,15.1,WNW,1013.0,0.0,50,29.8,10.0,17.5,331.15,44.0,6.475,1.48,14.615,28.305,1,2,2025-09-10,10:15:00
South Korea,Seoul,37.5664,126.9997,2026-02-04 16:00:00,2.4,Overcast,3.6,ESE,1022.0,0.0,73,1.9,10.0,5.2,965.85,0.0,73.85,59.75,46.95,55.65,3,5,2026-02-04,16:00:00
Cape Verde,Praia,14.93,-23.51,2024-08-29 11:00:00,30.3,Partly cloudy,22.0,N,1013.0,0.0,62,36.0,10.0,29.2,195.3,49.4,0.3,0.2,12.7,51.6,1,2,2024-08-29,11:00:00
Ghana,Accra,5.55,-0.2167,2025-06-04 09:00:00,24.4,Moderate rain,7.6,SW,1016.0,1.99,100,26.9,1.5,11.6,412.55,65.0,3.515,7.585,9.805,13.32,1,1,2025-06-04,09:00:00
Romania,Bucharest,44.4333,26.1,2025-01-17 11:45:00,5.2,Sunny,16.6,WSW,1036.0,0.0,48,1.8,10.0,21.5,740.0,11.0,67.71,17.02,78.995,84.545,4,10,2025-01-17,11:45:00
Serbia,Belgrade,44.8,20.47,2024-05-25 16:15:00,27.0,Sunny,25.9,SE,1015.0,0.0,34,27.5,10.0,28.8,188.6,108.7,1.2,2.5,4.1,6.9,1,1,2024-05-25,16:15:00
Tanzania,Dodoma,-6.1833,35.75,2026-03-27 09:30:00,22.4,Partly cloudy,10.4,E,1021.0,0.01,78,24.8,10.0,12.0,98.85,14.0,6.15,1.05,5.15,5.25,1,1,2026-03-27,09:30:00
Gabon,Libreville,0.3833,9.45,2025-01-03 11:45:00,30.0,Partly cloudy,4.3,SSW,1011.0,0.05,70,34.6,10.0,5.0,510.6,71.0,3.33,1.48,12.765,13.69,1,2,2025-01-03,11:45:00
Botswana,Gaborone,-24.65,25.91,2024-07-20 14:45:00,24.6,Sunny,8.6,W,1015.0,0.0,10,23.5,10.0,9.9,290.4,90.8,1.7,2.2,13.9,25.2,1,2,2024-07-20,14:45:00
Albania,Tirana,41.3275,19.8189,2025-02-08 11:30:00,14.0,Sunny,3.6,SE,1030.0,0.0,33,14.7,10.0,10.8,362.6,72.0,10.175,19.98,31.82,36.445,2,3,2025-02-08,11:30:00
Mauritania,Nouakchott,18.0864,-15.9753,2026-02-19 06:45:00,20.3,Clear,16.9,ENE,1012.0,0.0,29,20.3,10.0,35.5,122.85,56.0,1.25,1.25,42.05,283.95,3,5,2026-02-19,06:45:00
Zambia,Lusaka,-15.4167,28.2833,2025-05-30 11:00:00,21.6,Sunny,13.3,ESE,1023.0,0.0,39,21.6,10.0,15.3,299.7,64.0,0.925,4.44,11.1,12.21,1,1,2025-05-30,11:00:00
Angola,Luanda,-8.8383,13.2344,2025-12-05 08:15:00,27.2,Partly cloudy,7.9,SE,1011.0,0.0,79,30.9,8.0,10.8,179.85,50.0,3.55,4.25,13.65,17.15,1,2,2025-12-05,08:15:00
Cape Verde,Praia,14.9315,-23.5125,2026-02-05 05:45:00,18.1,Clear,14.4,N,1015.0,0.0,83,18.1,10.0,21.4,161.85,67.0,1.35,1.35,16.15,59.65,2,2,2026-02-05,05:45:00
Vietnam,Hanoi,21.03,105.85,2024-08-07 19:15:00,29.2,Patchy rain nearby,14.8,SE,1003.0,0.17,79,34.9,9.0,25.3,2162.9,71.5,78.8,37.2,114.9,134.5,4,10,2024-08-07,19:15:00
Serbia,Belgrade,44.804,20.4651,2025-05-08 10:45:00,13.1,Moderate rain,14.0,E,1009.0,0.09,94,11.8,8.0,16.9,351.5,60.0,18.5,9.62,21.83,26.085,2,2,2025-05-08,10:45:00
Kiribati,Tarawa,-0.8833,169.5333,2025-06-19 21:00:00,28.6,Patchy rain nearby,25.9,E,1011.0,0.11,76,33.0,10.0,34.8,155.4,14.0,0.0,0.37,7.215,11.84,1,1,2025-06-19,21:00:00
Russia,Moscow,55.7522,37.6156,2025-03-14 12:45:00,12.2,Partly cloudy,31.0,SW,992.0,0.02,71,9.4,10.0,42.8,538.35,43.0,51.985,50.135,34.04,44.77,2,3,2025-03-14,12:45:00
Spain,Madrid,40.4,-3.68,2024-07-11 14:45:00,34.0,Sunny,24.1,SW,1018.0,0.0,26,32.1,10.0,31.5,193.6,61.5,1.0,0.0,0.7,0.9,1,1,2024-07-11,14:45:00
Norway,Oslo,59.9167,10.75,2024-10-15 11:30:00,6.0,Sunny,3.6,S,1023.0,0.0,70,5.8,10.0,4.1,708.55,18.0,55.685,2.035,19.24,26.64,2,2,2024-10-15,11:30:00
Niger,Niamey,13.6667,1.7833,2026-03-07 07:30:00,26.2,Clear,17.3,E,1009.0,0.0,11,24.6,9.0,36.3,142.85,47.0,2.75,1.15,25.55,48.35,2,3,2026-03-07,07:30:00
France,Paris,48.8667,2.3333,2025-06-17 11:00:00,24.2,Sunny,8.3,NNE,1026.0,0.0,54,24.9,10.0,9.5,580.9,62.0,47.545,3.885,24.42,27.38,2,3,2025-06-17,11:00:00
Belarus,Minsk,53.9,27.5667,2025-06-01 11:45:00,18.2,Partly cloudy,14.0,NW,1017.0,0.0,56,18.2,10.0,16.2,240.5,67.0,6.845,1.48,7.585,10.545,1,1,2025-06-01,11:45:00
Cameroon,Douala,4.0503,9.7,2025-09-07 08:45:00,25.1,Moderate or heavy rain with thunder,6.5,SSW,1015.0,0.18,100,28.1,2.5,9.3,604.95,32.0,13.69,3.7,27.01,29.785,2,3,2025-09-07,08:45:00
Japan,Tokyo,35.6895,139.6917,2025-09-08 17:15:00,35.2,Partly cloudy,12.2,SSE,1007.0,0.0,44,41.6,10.0,16.1,712.25,51.0,118.585,82.88,80.105,82.14,4,10,2025-09-08,17:15:00
China,Beijing,39.9289,116.3883,2025-11-23 15:15:00,16.4,Sunny,6.5,WNW,1014.0,0.0,20,16.4,10.0,8.5,3824.85,4.0,43.85,69.65,93.95,99.55,4,10,2025-11-23,15:15:00
Namibia,Windhoek,-22.5717,17.0822,2025-06-09 11:00:00,5.3,Sunny,16.9,ESE,1028.0,0.0,65,1.8,10.0,19.5,129.5,61.0,0.555,0.555,1.665,2.405,1,1,2025-06-09,11:00:00
Burkina Faso,Ouagadougou,12.37,-1.52,2024-06-14 14:00:00,37.7,Sunny,14.4,SSW,1008.0,0.0,32,40.4,10.0,16.6,410.6,32.5,0.6,0.6,2.9,6.2,1,1,2024-06-14,14:00:00
Benin,Porto-Novo,6.48,2.62,2024-07-24 13:45:00,28.3,Patchy rain nearby,15.8,SSW,1017.0,0.01,62,30.4,10.0,18.2,527.4,52.2,1.8,1.3,4.4,7.3,1,1,2024-07-24,13:45:00
Qatar,Doha,25.2867,51.5333,2024-12-06 13:45:00,27.2,Sunny,10.8,N,1017.0,0.0,54,27.1,10.0,14.1,625.3,68.0,84.36,48.285,71.78,196.84,4,10,2024-12-06,13:45:00
Mongolia,Ulaanbaatar,47.92,106.92,2024-08-14 20:30:00,20.0,Partly cloudy,19.1,SW,1015.0,0.0,60,20.0,10.0,26.3,333.8,17.4,28.8,37.2,15.4,17.9,1,2,2024-08-14,20:30:00
Samoa,Apia,-13.8333,-171.7333,2024-11-20 21:45:00,26.4,Partly cloudy,19.1,ENE,1011.0,0.0,94,29.3,10.0,24.2,192.4,37.0,0.185,0.185,6.105,10.175,1,1,2024-11-20,21:45:00
Costa Rica,San Ignacio,9.8,-84.1667,2025-02-27 03:45:00,20.3,Clear,8.3,ENE,1015.0,0.0,73,20.3,10.0,17.4,462.5,80.0,6.66,10.545,9.62,12.21,1,1,2025-02-27,03:45:00
Andorra,Andorra La Vella,42.5,1.5167,2025-07-05 10:45:00,21.5,Patchy light rain in area with thunder,5.0,SSW,1022.0,0.54,52,21.5,10.0,5.9,205.35,70.0,0.74,0.0,9.065,16.28,1,1,2025-07-05,10:45:00
Uruguay,Montevideo,-34.8581,-56.1708,2026-01-11 04:00:00,19.1,Light drizzle,36.0,SSE,1006.0,0.61,100,19.1,10.0,53.5,76.85,60.0,2.85,2.15,7.05,10.35,1,1,2026-01-11,04:00:00
Yemen,Sanaa,15.35,44.21,2024-05-28 17:45:00,27.5,Sunny,24.1,NE,1012.0,0.0,14,25.6,10.0,27.8,166.9,93.0,1.3,3.8,39.1,158.1,2,4,2024-05-28,17:45:00
Rwanda,Kigali,-1.9536,30.0606,2026-03-07 08:30:00,17.3,Moderate or heavy rain with thunder,3.6,SSW,1022.0,0.38,100,17.3,2.0,10.8,460.85,22.0,8.05,2.45,21.45,24.25,2,2,2026-03-07,08:30:00
Iran,Chi Chi Khvar,36.2625,46.59,2025-06-10 12:30:00,22.3,Sunny,8.6,N,1010.0,0.0,26,22.9,10.0,12.8,366.3,140.0,7.03,2.22,19.795,28.305,2,2,2025-06-10,12:30:00
Trinidad And Tobago,Port Of Spain,10.65,-61.5167,2025-12-07 03:00:00,25.1,Light rain shower,16.2,ENE,1011.0,0.53,83,28.1,10.0,27.2,134.85,57.0,2.85,1.25,3.55,5.15,1,1,2025-12-07,03:00:00
Uganda,Kampala,0.32,32.57,2024-06-12 17:15:00,23.2,Partly cloudy,28.1,SSW,1018.0,0.01,78,25.0,10.0,35.3,263.7,39.0,0.4,0.2,2.1,3.7,1,1,2024-06-12,17:15:00
Papua New Guinea,Port Moresby,-9.4647,147.1925,2026-01-18 17:00:00,27.4,Partly Cloudy,11.5,NNW,1002.0,0.0,74,30.3,10.0,18.8,147.85,34.0,2.15,1.05,5.35,6.15,1,1,2026-01-18,17:00:00
Dominica,Roseau,15.3,-61.4,2025-06-03 05:00:00,26.6,Patchy rain nearby,17.6,ENE,1017.0,0.01,73,28.9,10.0,24.0,222.0,43.0,0.37,0.185,22.57,59.57,2,2,2025-06-03,05:00:00
Russia,Moscow,55.7522,37.6156,2025-04-21 12:15:00,24.3,Sunny,20.9,SW,1013.0,0.0,22,24.1,10.0,24.0,712.25,52.0,64.75,85.285,46.62,59.755,3,5,2025-04-21,12:15:00
Mauritania,Nouakchott,18.0864,-15.9753,2025-11-24 07:15:00,24.3,Partly Cloudy,26.3,NE,1017.0,0.0,52,25.5,10.0,41.4,136.85,64.0,1.25,1.05,55.95,408.75,3,7,2025-11-24,07:15:00
Japan,Tokyo,35.6895,139.6917,2026-03-12 15:30:00,13.2,Sunny,11.9,NNE,1018.0,0.0,21,12.2,10.0,13.7,295.85,10.0,62.15,29.75,28.35,28.85,2,3,2026-03-12,15:30:00
Algeria,Algiers,36.7631,3.0506,2025-04-23 10:00:00,18.1,Sunny,6.8,WNW,1023.0,0.0,64,18.1,10.0,8.3,392.2,61.0,42.92,16.835,22.015,32.93,2,2,2025-04-23,10:00:00
Seychelles Islands,Victoria,-4.6167,55.45,2026-02-27 10:45:00,29.3,Partly cloudy,4.0,WNW,1010.0,0.08,79,35.0,10.0,5.4,120.85,41.0,2.95,2.45,4.45,7.05,1,1,2026-02-27,10:45:00
Fiji Islands,Suva,-18.1333,178.4167,2025-08-14 20:30:00,24.1,Partly cloudy,13.3,ESE,1014.0,0.07,78,26.1,10.0,19.4,146.15,59.0,1.665,0.925,11.47,18.5,1,1,2025-08-14,20:30:00
Argentina,Buenos Aires,-34.5875,-58.6725,2025-05-09 06:15:00,15.2,Overcast,7.9,SSE,1010.0,0.0,94,15.2,10.0,13.5,1161.8,15.0,32.56,11.84,16.65,17.945,2,2,2025-05-09,06:15:00
Slovenia,Ljubljana,46.06,14.51,2024-09-07 14:00:00,25.3,Partly cloudy,6.1,ENE,1017.0,0.0,57,25.8,10.0,17.4,277.5,90.0,3.515,0.74,10.73,11.84,1,1,2024-09-07,14:00:00
Liberia,Monrovia,6.3106,-10.8047,2026-02-17 06:45:00,24.1,Partly cloudy,5.8,WNW,1011.0,0.02,94,26.4,10.0,9.5,278.85,32.0,12.85,2.55,23.95,35.45,2,2,2026-02-17,06:45:00
Jordan,Amman,31.95,35.9333,2025-11-28 10:30:00,15.3,Sunny,24.5,ESE,1023.0,0.0,41,15.3,6.0,28.2,143.85,52.0,6.55,17.05,22.55,43.15,2,2,2025-11-28,10:30:00
Luxembourg,Luxembourg,49.6117,6.13,2024-10-20 11:30:00,13.5,Partly Cloudy,13.7,S,1022.0,0.0,81,12.4,10.0,17.7,355.2,32.0,26.27,0.925,16.65,22.015,2,2,2024-10-20,11:30:00
Romania,Bucharest,44.4333,26.1,2024-12-03 12:45:00,6.4,Overcast,4.0,ESE,1021.0,0.0,75,6.1,10.0,4.9,516.15,26.0,34.965,11.47,53.65,59.385,3,6,2024-12-03,12:45:00
Japan,Tokyo,35.6895,139.6917,2026-01-08 16:15:00,9.3,Partly cloudy,36.4,NNW,1007.0,0.0,32,5.3,10.0,43.7,1751.85,3.0,64.45,74.45,64.65,65.15,3,8,2026-01-08,16:15:00
Kuwait,Kuwait City,29.3667,47.96,2025-02-03 13:30:00,21.3,Sunny,11.5,NW,1019.0,0.0,17,21.3,10.0,15.9,492.1,59.0,51.615,20.905,74.925,341.14,4,10,2025-02-03,13:30:00
Saudi Arabia,Riyadh,24.6408,46.7728,2025-07-28 11:30:00,44.1,Sunny,8.6,NNE,1004.0,0.0,5,46.4,10.0,9.9,555.0,68.0,62.345,64.565,44.955,161.135,3,5,2025-07-28,11:30:00
Micronesia,Palikir,6.9167,158.15,2025-11-15 18:30:00,30.3,Partly cloudy,22.7,E,1009.0,0.11,79,37.3,24.0,30.6,89.85,30.0,0.85,1.05,3.45,4.95,1,1,2025-11-15,18:30:00
United States,Washington Harbor,48.0792,-123.0439,2025-01-23 02:30:00,2.6,Clear,3.6,W,1038.0,0.0,89,2.1,16.0,6.8,410.7,89.0,16.095,2.405,8.88,9.99,1,1,2025-01-23,02:30:00
Denmark,Copenhagen,55.6667,12.5833,2024-12-25 11:45:00,6.2,Overcast,17.3,SW,1030.0,0.0,98,3.0,10.0,29.8,338.55,37.0,44.585,1.48,14.06,19.98,1,2,2024-12-25,11:45:00
Kyrghyzstan,Bishkek,42.8731,74.6003,2025-07-29 14:45:00,32.7,Sunny,18.0,NNW,1003.0,0.0,20,30.5,10.0,20.7,297.85,97.0,6.29,5.55,19.795,29.97,2,2,2025-07-29,14:45:00
Central African Republic,Bangui,4.3667,18.5833,2025-11-06 08:45:00,24.1,Patchy light rain with thunder,3.6,NW,1014.0,0.0,89,25.8,6.0,10.8,204.85,42.0,1.95,0.95,16.35,21.95,2,2,2025-11-06,08:45:00
Suriname,Paramaribo,5.8333,-55.1667,2024-12-25 07:15:00,22.8,Partly Cloudy,6.8,ENE,1011.0,0.0,91,25.1,10.0,12.1,305.25,64.0,1.48,1.85,58.275,77.33,3,7,2024-12-25,07:15:00
San Marino,San Marino,43.9333,12.45,2025-07-27 10:30:00,25.1,Sunny,19.1,NW,1009.0,0.0,54,26.2,10.0,22.0,273.892,100.0,4.017,0.548,8.765,10.956,1,1,2025-07-27,10:30:00
Belgium,'S Gravenjansdijk,51.25,3.6333,2025-08-06 10:30:00,19.1,Sunny,11.2,W,1025.0,0.0,64,19.1,10.0,12.9,323.75,46.0,35.335,1.665,12.21,22.2,1,2,2025-08-06,10:30:00
Slovenia,Ljubljana,46.0553,14.5144,2024-10-05 11:45:00,11.2,Overcast,4.0,NE,1015.0,0.05,87,11.4,10.0,4.6,360.75,36.0,17.76,1.85,23.68,28.305,2,2,2024-10-05,11:45:00
Sierra Leone,Freetown,8.49,-13.2342,2025-03-03 09:45:00,26.5,Sunny,9.0,WNW,1012.0,0.0,63,27.9,10.0,11.0,255.3,83.0,1.48,3.7,61.42,122.84,3,8,2025-03-03,09:45:00
Nepal,Kathmandu,27.7167,85.3167,2026-03-30 12:15:00,20.3,Light rain,9.0,SW,1016.0,0.1,78,20.3,6.0,10.4,534.85,120.0,8.95,8.25,59.15,80.95,3,8,2026-03-30,12:15:00
Thailand,Bangkok,13.75,100.52,2024-06-10 21:15:00,30.1,Partly cloudy,13.0,SSW,1008.0,0.05,66,35.7,10.0,24.6,734.3,0.4,22.3,17.4,11.1,32.0,1,1,2024-06-10,21:15:00
Sudan,Juba,12.15,24.45,2025-10-28 10:00:00,30.4,Sunny,25.2,NE,1012.0,0.0,14,28.2,10.0,29.0,134.85,57.0,2.85,2.15,21.75,97.05,2,2,2025-10-28,10:00:00
Oman,Muscat,23.6133,58.5933,2025-05-04 12:45:00,44.1,Sunny,13.3,NNW,1003.0,0.0,10,49.1,10.0,22.9,288.6,77.0,22.2,23.865,61.42,283.42,3,8,2025-05-04,12:45:00
Vatican City,Vatican City,41.9,12.45,2024-08-13 14:45:00,35.4,Sunny,21.6,WSW,1010.0,0.0,33,36.8,10.0,24.8,227.0,120.2,2.0,0.9,7.9,9.2,1,1,2024-08-13,14:45:00
Dominican Republic,Santo Domingo,18.4667,-69.9,2025-11-17 03:15:00,23.2,Partly cloudy,5.4,NNW,1013.0,0.0,94,25.6,10.0,10.2,606.85,25.0,30.75,8.45,19.35,19.45,2,2,2025-11-17,03:15:00
Iraq,Baghdad,33.34,44.39,2024-05-29 17:00:00,42.0,Clear,13.0,NNE,1004.0,0.0,11,43.0,10.0,28.7,988.0,0.2,87.1,31.5,20.7,63.9,2,2,2024-05-29,17:00:00
Syria,Damascus,33.5,36.3,2024-10-22 12:15:00,19.3,Sunny,11.2,SE,1020.0,0.0,18,19.3,10.0,12.9,318.2,45.0,46.25,203.315,21.83,24.42,2,2,2024-10-22,12:15:00
China,Beijing,39.93,116.39,2024-09-29 17:30:00,24.2,Light rain,7.9,SW,1013.0,0.13,74,25.9,6.0,11.2,1552.15,9.0,107.67,91.575,112.48,170.94,4,10,2024-09-29,17:30:00
Brunei Darussalam,Bandar Seri Begawan,4.8833,114.9333,2025-06-22 16:30:00,32.1,Partly cloudy,7.9,NNW,1009.0,0.32,59,41.1,10.0,10.8,902.8,21.0,7.585,3.145,15.54,16.095,2,2,2025-06-22,16:30:00
Algeria,Algiers,36.7631,3.0506,2026-02-06 07:45:00,15.2,Clear,21.6,SW,1007.0,0.0,63,15.2,10.0,37.2,124.85,72.0,5.45,2.95,4.15,6.55,1,1,2026-02-06,07:45:00
Zambia,Lusaka,-15.4167,28.2833,2025-02-16 12:15:00,22.9,Patchy rain nearby,7.6,E,1011.0,0.01,78,25.0,10.0,9.4,388.5,51.0,0.555,0.74,8.51,8.51,1,1,2025-02-16,12:15:00
Hungary,Budapest,47.5,19.08,2024-06-19 15:45:00,32.4,Sunny,18.7,SW,1012.0,0.0,35,32.6,10.0,21.5,178.6,101.6,2.1,2.6,8.5,12.4,1,1,2024-06-19,15:45:00
Bolivia,Sucre,-19.04,-65.26,2024-07-19 08:30:00,13.4,Sunny,3.6,NNW,1017.0,0.0,37,13.5,10.0,10.8,223.6,55.1,3.9,1.4,3.6,8.0,1,1,2024-07-19,08:30:00
Ukraine,Kyiv,50.4333,30.5167,2025-07-09 11:45:00,30.9,Sunny,14.8,SSW,1006.0,0.0,29,29.7,10.0,17.0,286.75,81.0,16.095,3.7,16.28,22.385,2,2,2025-07-09,11:45:00
Haiti,Port-Au-Prince,18.5392,-72.335,2025-06-24 04:45:00,20.3,Clear,6.8,ESE,1015.0,0.0,91,20.3,10.0,14.4,488.4,75.0,7.215,10.545,27.565,43.845,2,3,2025-06-24,04:45:00
Mauritania,Nouakchott,18.0864,-15.9753,2026-01-29 07:00:00,18.5,Clear,21.2,NE,1017.0,0.0,28,18.5,10.0,44.6,147.85,49.0,1.35,1.35,26.85,194.05,2,3,2026-01-29,07:00:00
Barbados,Bridgetown,13.1,-59.6167,2024-11-17 04:45:00,26.4,Partly cloudy,18.0,ESE,1009.0,0.89,89,29.4,10.0,26.4,252.255,57.0,2.505,0.895,6.083,9.482,1,1,2024-11-17,04:45:00
Saint Vincent And The Grenadines,Kingstown,13.1333,-61.2167,2025-09-25 03:45:00,27.0,Patchy rain nearby,23.8,ESE,1014.0,0.04,84,29.9,10.0,32.1,279.051,42.0,0.54,0.36,7.561,12.602,1,1,2025-09-25,03:45:00
Bhutan,Thimphu,27.4833,89.6,2026-01-27 13:00:00,12.6,Sunny,9.7,ESE,1015.0,0.0,25,11.8,10.0,11.2,272.85,74.0,3.75,1.45,8.45,18.75,1,1,2026-01-27,13:00:00
Cambodia,Phnom Penh,11.55,104.9167,2025-08-24 15:15:00,33.1,Partly cloudy,23.0,WSW,1004.0,0.02,71,38.1,10.0,28.8,355.2,43.0,5.92,5.365,6.475,7.03,1,1,2025-08-24,15:15:00
Myanmar,Rangoon,16.7833,96.1667,2025-09-19 14:30:00,32.0,Partly cloudy,14.0,SE,1004.0,0.01,67,39.3,7.0,16.7,388.5,46.0,12.21,9.62,15.17,16.28,1,2,2025-09-19,14:30:00
Finland,Helsinki,60.1756,24.9342,2024-11-12 11:00:00,4.3,Light rain,17.3,W,1027.0,0.03,93,0.5,10.0,24.5,329.3,31.0,29.23,2.96,10.36,15.725,1,1,2024-11-12,11:00:00
Burundi,Bujumbura,-3.3761,29.36,2025-10-13 10:00:00,28.6,Sunny,11.2,S,1012.0,0.0,40,28.5,10.0,12.9,256.85,88.0,2.25,1.95,11.25,11.65,1,1,2025-10-13,10:00:00
Pakistan,Islamabad,33.7,73.17,2024-09-20 15:45:00,33.6,Sunny,6.5,SSE,1005.0,0.0,36,34.6,10.0,7.5,1480.0,139.0,47.73,23.495,68.45,111.185,4,9,2024-09-20,15:45:00
Senegal,Dakar,14.6708,-17.4381,2025-01-20 09:45:00,21.4,Sunny,23.8,NE,1016.0,0.0,49,21.4,10.0,39.5,418.1,61.0,3.885,1.665,42.18,184.445,3,5,2025-01-20,09:45:00
Sri Lanka,Colombo,6.9319,79.8478,2026-01-30 12:30:00,30.1,Sunny,20.5,NNW,1014.0,0.0,59,34.1,9.0,23.6,634.85,68.0,20.25,4.95,39.85,42.25,2,4,2026-01-30,12:30:00
Belize,Belmopan,17.25,-88.7667,2025-05-01 02:45:00,21.4,Mist,4.3,ESE,1011.0,0.01,97,21.4,2.0,9.0,236.8,52.0,1.48,0.555,7.585,10.36,1,1,2025-05-01,02:45:00
Austria,Vienna,48.2,16.3667,2025-04-07 11:00:00,6.4,Partly cloudy,15.8,NNW,1022.0,0.0,49,3.4,10.0,18.2,347.8,75.0,7.955,1.85,10.915,12.025,1,1,2025-04-07,11:00:00
Ireland,Dublin,53.3331,-6.2489,2025-09-07 08:45:00,17.1,Light rain,25.9,SSE,998.0,0.91,94,17.1,6.0,37.0,240.5,69.0,4.995,0.925,7.215,14.06,1,1,2025-09-07,08:45:00
Finland,Helsinki,60.1756,24.9342,2025-07-26 11:30:00,27.3,Sunny,9.4,S,1009.0,0.0,54,29.2,10.0,14.1,371.85,65.0,29.785,2.035,19.055,21.09,2,2,2025-07-26,11:30:00
Samoa,Apia,-13.83,-171.73,2024-10-02 22:30:00,25.2,Partly cloudy,32.8,E,1013.0,0.13,89,27.4,10.0,42.1,190.55,25.0,0.0,0.185,4.255,8.325,1,1,2024-10-02,22:30:00
Monaco,Monaco,43.73,7.42,2024-09-06 14:15:00,26.2,Partly cloudy,13.0,S,1012.0,0.0,51,27.4,10.0,20.2,290.45,96.0,4.995,1.295,5.365,7.585,1,1,2024-09-06,14:15:00
Burkina Faso,Ouagadougou,12.3703,-1.5247,2025-04-28 09:30:00,30.3,Sunny,16.2,SSW,1010.0,0.0,52,29.8,10.0,18.6,510.6,83.0,1.85,1.11,29.415,119.325,2,3,2025-04-28,09:30:00
Brunei Darussalam,Bandar Seri Begawan,4.8833,114.9333,2025-07-07 17:00:00,31.3,Partly cloudy,13.0,W,1009.0,2.11,63,43.1,10.0,26.1,590.15,38.0,3.515,3.33,16.65,17.76,2,2,2025-07-07,17:00:00
Bolivia,National,-11.1833,-67.0833,2024-10-27 05:15:00,21.6,Fog,5.8,SSE,1012.0,0.01,98,21.6,0.0,9.0,604.95,42.0,0.925,0.555,28.12,39.775,2,3,2024-10-27,05:15:00
Belgium,Brussels,50.83,4.33,2024-10-01 11:45:00,13.4,Partly cloudy,28.4,SW,1007.0,0.02,82,11.1,10.0,37.8,310.8,58.0,13.32,1.295,4.44,10.545,1,1,2024-10-01,11:45:00
Chile,Santiago,-33.45,-70.6667,2025-03-14 06:30:00,12.3,Mist,3.6,WSW,1012.0,0.0,94,12.8,3.0,6.5,1252.45,60.0,127.835,95.275,108.78,109.705,4,10,2025-03-14,06:30:00
Mozambique,Maputo,-25.97,32.59,2024-07-03 15:00:00,27.1,Sunny,15.1,N,1013.0,0.0,45,26.7,10.0,18.1,237.0,41.5,0.2,0.8,4.2,10.0,1,1,2024-07-03,15:00:00
New Zealand,Wellington,-41.3,174.7833,2024-12-31 23:15:00,14.4,Partly cloudy,36.4,S,1005.0,0.39,82,12.0,8.0,49.4,127.65,30.0,1.295,0.74,7.955,12.025,1,1,2024-12-31,23:15:00
Nepal,Kathmandu,27.7167,85.3167,2026-01-17 12:45:00,18.4,Sunny,3.6,W,1019.0,0.0,45,18.4,6.0,3.7,2520.85,88.0,37.05,24.85,117.25,122.35,4,10,2026-01-17,12:45:00
South Africa,Pretoria,-25.7469,28.188,2024-11-27 10:30:00,27.2,Partly cloudy,21.6,NW,1015.0,0.0,48,27.0,10.0,24.8,414.4,91.0,4.625,11.1,18.87,18.87,2,2,2024-11-27,10:30:00
Vanuatu,Port Vila,-17.73,168.32,2024-06-15 01:00:00,21.6,Clear,7.6,SSE,1013.0,0.0,67,21.6,10.0,12.6,223.6,47.9,0.5,0.2,2.3,7.4,1,1,2024-06-15,01:00:00
Oman,Muscat,23.6133,58.5933,2025-02-20 14:00:00,27.2,Sunny,19.1,ENE,1011.0,0.0,66,27.9,10.0,22.9,351.5,101.0,27.75,28.86,40.33,82.88,2,4,2025-02-20,14:00:00
Guyana,Georgetown,6.8,-58.17,2024-09-29 05:30:00,24.4,Partly cloudy,5.0,ESE,1009.0,0.0,100,26.7,10.0,9.1,262.7,36.0,1.665,1.85,14.8,26.455,1,2,2024-09-29,05:30:00
Japan,Tokyo,35.69,139.69,2024-07-11 21:45:00,26.0,Partly cloudy,9.0,S,1001.0,0.6,84,27.8,10.0,13.0,307.1,3.6,60.3,20.0,8.2,10.5,1,1,2024-07-11,21:45:00
Lithuania,Vilnius,54.6833,25.3167,2026-02-07 08:45:00,-3.8,Heavy snow,9.0,E,1005.0,0.05,93,-7.5,2.4,14.1,213.85,61.0,4.05,4.25,11.35,11.85,1,1,2026-02-07,08:45:00
Vietnam,Hanoi,21.0333,105.85,2025-01-04 18:00:00,21.0,Clear,22.0,SE,1016.0,0.0,44,21.0,10.0,32.3,1526.25,129.0,48.47,72.335,137.455,138.75,4,10,2025-01-04,18:00:00
San Marino,San Marino,43.9333,12.45,2025-05-25 10:30:00,18.1,Sunny,10.4,NE,1018.0,0.0,52,18.1,10.0,12.0,247.9,91.0,1.85,0.74,13.135,15.355,1,2,2025-05-25,10:30:00
Vatican City,Vatican City,41.904,12.453,2026-01-16 08:15:00,5.1,Partly Cloudy,6.5,NE,1020.0,0.0,100,3.7,10.0,13.0,322.85,18.0,26.05,3.35,25.45,28.95,2,3,2026-01-16,08:15:00
Morocco,Rabat,34.03,-6.84,2024-08-03 13:30:00,26.4,Sunny,16.9,NNW,1013.0,0.0,63,27.8,10.0,20.5,213.6,114.4,0.5,1.7,10.0,28.1,1,1,2024-08-03,13:30:00
Dominican Republic,Santo Domingo,18.4667,-69.9,2025-06-22 04:30:00,24.1,Partly cloudy,8.3,N,1016.0,0.0,94,26.4,10.0,14.8,458.8,38.0,17.02,10.545,20.535,32.93,2,2,2025-06-22,04:30:00
Swaziland,Mbabane,-26.3167,31.1333,2026-04-02 08:30:00,17.3,Patchy rain nearby,4.3,SSE,1024.0,0.09,89,17.3,10.0,5.7,86.85,44.0,3.05,2.05,4.45,5.45,1,1,2026-04-02,08:30:00
Belarus,Minsk,53.9,27.5667,2025-02-03 13:30:00,0.1,Light snow,21.6,NW,1016.0,0.05,86,-5.3,4.5,27.7,370.0,40.0,15.54,4.44,6.66,7.585,1,1,2025-02-03,13:30:00
Brazil,Bras,-2.0833,-58.1667,2025-11-16 03:15:00,25.3,Clear,3.6,NNE,1005.0,0.0,52,26.2,10.0,10.8,257.85,70.0,2.35,1.65,19.35,20.15,2,2,2025-11-16,03:15:00
Denmark,Copenhagen,55.6667,12.5833,2026-02-10 09:00:00,0.0,Light snow,13.7,SSE,1005.0,0.03,93,-4.2,3.0,19.9,254.85,41.0,17.45,2.95,15.35,17.55,1,2,2026-02-10,09:00:00
Egypt,Cairo,30.05,31.25,2026-03-19 08:30:00,18.1,Patchy rain nearby,26.6,WSW,1004.0,0.01,49,18.1,10.0,32.2,187.85,53.0,18.15,29.05,47.25,155.75,3,5,2026-03-19,08:30:00
Indonesia,Laos,-8.1826,114.3188,2024-12-11 17:45:00,26.0,Patchy rain nearby,4.7,NNE,1005.0,0.72,89,29.4,9.0,8.0,497.65,122.0,3.515,4.995,23.31,23.865,2,2,2024-12-11,17:45:00
Monaco,Monaco,43.7333,7.4167,2025-08-19 10:00:00,29.2,Partly cloudy,8.3,SE,1014.0,0.0,52,32.6,10.0,9.5,323.75,72.0,12.765,1.48,24.05,33.485,2,3,2025-08-19,10:00:00
Thailand,Nan,18.7833,100.7833,2025-09-12 15:15:00,30.2,Light rain shower,4.7,W,1008.0,1.09,75,36.4,10.0,6.0,358.9,49.0,13.69,2.22,15.54,15.725,2,2,2025-09-12,15:15:00
Ethiopia,Addis Ababa,9.0333,38.7,2026-01-27 10:00:00,17.2,Sunny,11.2,SE,1029.0,0.0,52,17.2,10.0,12.9,498.85,64.0,6.35,3.45,30.45,52.85,2,3,2026-01-27,10:00:00
Turkey,Ankara,39.93,32.86,2024-06-26 16:30:00,30.3,Sunny,15.1,E,1014.0,0.0,25,29.1,10.0,24.8,170.2,101.6,3.6,1.8,2.9,3.4,1,1,2024-06-26,16:30:00
Sierra Leone,Freetown,8.49,-13.2342,2024-11-12 09:00:00,27.7,Sunny,4.7,ENE,1011.0,0.0,74,30.9,10.0,5.7,408.85,54.0,1.665,0.925,31.265,45.695,2,3,2024-11-12,09:00:00
Ghana,Accra,5.55,-0.2167,2025-08-16 08:15:00,24.2,Overcast,16.2,WSW,1015.0,0.0,89,26.2,8.0,22.5,308.95,43.0,5.735,6.66,19.055,24.975,2,2,2025-08-16,08:15:00
Bulgaria,Sofia,42.6833,23.3167,2026-03-08 08:30:00,2.1,Partly cloudy,4.0,E,1027.0,0.0,80,1.3,10.0,5.1,188.85,43.0,9.75,3.55,29.95,32.55,2,3,2026-03-08,08:30:00
Vietnam,Hanoi,21.0333,105.85,2025-06-30 15:45:00,28.7,Patchy rain nearby,3.6,WSW,1000.0,0.02,77,33.5,10.0,4.0,751.1,65.0,43.29,29.415,54.205,56.795,3,7,2025-06-30,15:45:00
Yemen,Sanaa,15.3547,44.2067,2025-09-21 11:00:00,24.6,Sunny,22.3,ENE,1013.0,0.0,24,24.0,10.0,25.7,262.7,75.0,3.145,1.295,33.485,89.54,2,3,2025-09-21,11:00:00
Vatican City,Vatican City,41.904,12.453,2024-10-21 11:15:00,17.9,Partly Cloudy,8.3,NNE,1024.0,0.0,82,17.9,10.0,15.0,310.8,35.0,17.945,0.74,15.17,17.39,1,2,2024-10-21,11:15:00
Haiti,Port-Au-Prince,18.5392,-72.335,2026-01-26 02:00:00,17.3,Clear,4.0,ESE,1017.0,0.0,84,17.3,10.0,8.3,464.85,30.0,24.55,5.95,61.15,61.85,3,8,2026-01-26,02:00:00
Belgium,Brussels,50.83,4.33,2024-08-08 14:15:00,22.4,Cloudy,15.5,WSW,1017.0,0.0,54,24.6,10.0,19.0,205.3,86.6,2.9,1.4,2.9,5.9,1,1,2024-08-08,14:15:00
Bolivia,Sucre,-19.0431,-65.2592,2026-01-27 03:00:00,13.5,Patchy rain nearby,5.4,NNE,1015.0,1.64,83,13.7,9.0,8.8,130.85,58.0,3.95,2.15,3.25,3.25,1,1,2026-01-27,03:00:00
Singapore,Singapore,1.2931,103.8558,2025-06-28 16:30:00,26.3,Light rain,15.8,SSW,1008.0,0.34,84,28.2,10.0,22.2,606.8,65.0,61.79,17.945,37.185,39.035,2,4,2025-06-28,16:30:00
Bolivia,Sucre,-19.0431,-65.2592,2025-11-02 03:45:00,13.1,Patchy rain nearby,10.1,NNE,1011.0,0.03,83,12.4,10.0,12.5,172.85,50.0,2.15,1.25,4.55,5.45,1,1,2025-11-02,03:45:00
Mexico,Mexico City,19.43,-99.13,2024-08-07 06:00:00,14.7,Partly Cloudy,3.6,S,1020.0,0.0,84,14.8,10.0,10.8,787.7,0.1,24.0,14.4,31.3,41.1,2,3,2024-08-07,06:00:00
Suriname,Paramaribo,5.8333,-55.1667,2025-11-04 04:45:00,23.2,Partly Cloudy,10.4,E,1010.0,0.0,100,25.6,10.0,18.5,133.85,36.0,2.35,1.55,3.85,5.35,1,1,2025-11-04,04:45:00
Tonga,Nuku`Aloia,-21.1333,-175.2,2025-05-26 22:00:00,23.4,Light rain,8.3,ESE,1013.0,0.0,100,25.4,10.0,11.5,135.05,62.0,0.37,0.185,5.92,9.435,1,1,2025-05-26,22:00:00
Seychelles Islands,Victoria,-4.62,55.45,2024-07-09 16:45:00,25.8,Cloudy,29.9,SSE,1010.0,0.0,76,28.0,10.0,40.1,207.0,62.9,0.3,0.7,3.3,17.3,1,1,2024-07-09,16:45:00
Denmark,Copenhagen,55.67,12.58,2024-06-10 16:15:00,16.1,Partly cloudy,29.9,SW,1003.0,0.04,63,16.1,10.0,32.9,175.2,73.0,0.7,0.2,0.5,0.9,1,1,2024-06-10,16:15:00
Malta,Valletta,35.8997,14.5147,2025-03-21 10:30:00,16.1,Partly cloudy,21.6,SE,1028.0,0.0,68,16.1,10.0,28.9,297.85,99.0,15.17,1.48,9.805,22.2,1,1,2025-03-21,10:30:00
Ukraine,Kyiv,50.4333,30.5167,2025-12-09 09:45:00,0.0,Cloudy,9.7,S,1024.0,0.0,85,-3.2,10.0,16.5,204.85,32.0,15.05,6.25,11.55,14.75,1,1,2025-12-09,09:45:00
Morocco,Rabat,34.03,-6.84,2024-08-08 13:15:00,24.8,Sunny,15.8,WNW,1016.0,0.0,70,26.4,10.0,18.2,190.3,101.6,0.3,0.9,10.2,35.3,1,1,2024-08-08,13:15:00
Luxembourg,Luxembourg,49.6117,6.13,2024-10-06 11:15:00,8.6,Partly cloudy,16.2,SSE,1009.0,0.0,85,6.0,10.0,20.4,366.3,35.0,15.54,1.85,13.32,15.54,1,2,2024-10-06,11:15:00
Brazil,Bras,-2.0833,-58.1667,2024-12-08 06:30:00,23.3,Patchy rain nearby,3.6,NE,1010.0,0.12,92,25.6,10.0,5.3,318.2,66.0,0.925,0.74,26.455,27.565,2,3,2024-12-08,06:30:00
Brazil,Bras,-2.0833,-58.1667,2025-11-28 03:30:00,23.6,Partly Cloudy,3.6,NNE,1007.0,0.0,92,26.0,10.0,5.9,175.85,31.0,1.85,1.15,10.05,10.75,1,1,2025-11-28,03:30:00
Tonga,Nuku`Aloia,-21.1333,-175.2,2025-03-09 22:45:00,26.2,Partly cloudy,15.5,SSE,1010.0,0.0,94,29.0,10.0,21.0,135.05,34.0,0.185,0.185,5.92,9.805,1,1,2025-03-09,22:45:00
Hungary,Budapest,47.5,19.0833,2024-12-28 11:15:00,5.1,Sunny,3.6,SSW,1029.0,0.0,56,4.8,9.0,10.8,529.1,22.0,69.375,7.4,61.605,75.11,3,8,2024-12-28,11:15:00
Madagascar,Antananarivo,-18.9167,47.5167,2025-10-14 11:15:00,25.3,Sunny,19.1,E,1023.0,0.0,22,24.0,10.0,22.0,150.85,89.0,2.25,1.45,6.25,7.65,1,1,2025-10-14,11:15:00
Qatar,Doha,25.2867,51.5333,2024-12-03 13:45:00,24.4,Sunny,16.2,N,1017.0,0.0,41,24.9,10.0,19.3,468.05,88.0,36.075,26.825,25.715,52.91,2,3,2024-12-03,13:45:00
Tajikistan,Dushanbe,38.56,68.77,2024-08-26 17:15:00,35.1,Sunny,3.6,WSW,1009.0,0.0,14,33.3,10.0,23.2,185.3,105.9,0.2,0.5,6.4,19.3,1,1,2024-08-26,17:15:00
Monaco,Monaco,43.73,7.42,2024-08-15 14:15:00,30.1,Sunny,9.0,SE,1015.0,2.54,52,38.9,10.0,12.5,223.6,94.4,1.0,1.3,13.1,15.1,1,2,2024-08-15,14:15:00
Botswana,Gaborone,-24.65,25.91,2024-08-15 14:15:00,26.5,Sunny,5.8,ESE,1020.0,0.0,6,24.9,10.0,6.6,237.0,85.1,2.0,1.7,3.5,6.0,1,1,2024-08-15,14:15:00
Vatican City,Vatican City,41.904,12.453,2026-03-23 07:30:00,7.3,Sunny,7.9,NNE,1013.0,0.0,81,5.8,10.0,15.2,248.85,43.0,13.35,1.55,23.65,26.35,2,2,2026-03-23,07:30:00
United Kingdom,London,51.5171,-0.1062,2025-07-14 10:00:00,21.4,Partly cloudy,20.5,SW,1012.0,0.0,60,21.4,10.0,23.6,286.75,75.0,31.82,2.035,13.69,20.165,1,2,2025-07-14,10:00:00
Latvia,Riga,56.95,24.1,2025-02-18 12:15:00,-3.7,Partly cloudy,13.3,W,1020.0,0.0,80,-8.6,10.0,17.4,484.7,49.0,40.7,6.66,29.23,35.15,2,3,2025-02-18,12:15:00
Solomon Islands,Honiara,-9.43,159.95,2024-07-05 00:15:00,24.8,Clear,12.2,SE,1011.0,0.0,83,27.0,10.0,18.0,185.3,26.1,1.1,0.3,2.0,5.3,1,1,2024-07-05,00:15:00
Dominican Republic,Santo Domingo,18.4667,-69.9,2026-04-03 02:30:00,22.1,Partly cloudy,15.5,N,1016.0,0.0,94,24.7,10.0,27.0,178.85,45.0,9.25,3.05,4.75,6.15,1,1,2026-04-03,02:30:00
Kuwait,Kuwait City,29.3667,47.96,2025-07-02 11:45:00,42.2,Sunny,22.3,NW,999.0,0.0,7,43.3,10.0,36.4,381.1,85.0,39.96,16.835,115.44,551.3,4,10,2025-07-02,11:45:00
Turkey,Ankara,39.9272,32.8644,2025-08-17 11:15:00,25.0,Sunny,5.0,SE,1012.0,0.0,34,23.9,10.0,5.8,270.1,68.0,17.39,8.51,14.8,23.31,1,2,2025-08-17,11:15:00
Haiti,Port-Au-Prince,18.54,-72.34,2024-09-02 08:15:00,29.2,Partly cloudy,6.8,E,1013.0,0.0,75,33.2,9.0,8.7,454.0,63.7,9.9,8.7,10.0,18.1,1,1,2024-09-02,08:15:00
Poland,Warsaw,52.25,21.0,2025-01-20 10:45:00,0.2,Partly cloudy,6.5,SSE,1024.0,0.0,100,-2.0,6.0,12.3,1202.5,9.0,58.275,67.71,145.225,158.175,4,10,2025-01-20,10:45:00
Iraq,Baghdad,33.3386,44.3939,2025-08-05 11:30:00,42.2,Sunny,35.3,NNW,1003.0,0.0,13,43.3,10.0,40.6,614.2,85.0,41.255,98.79,23.31,55.13,2,2,2025-08-05,11:30:00
Kyrghyzstan,Bishkek,42.87,74.6,2024-07-17 18:45:00,24.4,Patchy rain nearby,10.4,NNW,1008.0,0.02,45,25.2,10.0,12.0,176.9,91.6,0.9,0.3,2.9,9.7,1,1,2024-07-17,18:45:00
Haiti,Port-Au-Prince,18.5392,-72.335,2025-06-07 04:45:00,18.7,Clear,7.2,ESE,1015.0,0.0,93,18.7,10.0,15.1,456.95,87.0,6.29,12.58,24.05,26.64,2,3,2025-06-07,04:45:00
Norway,Oslo,59.9167,10.75,2026-02-01 08:00:00,-9.7,Overcast,5.4,NE,1024.0,0.06,85,-12.8,10.0,11.3,224.85,56.0,11.35,1.95,6.25,8.45,1,1,2026-02-01,08:00:00
Iraq,Baghdad,33.3386,44.3939,2025-07-18 11:30:00,42.5,Sunny,21.2,WNW,1002.0,0.0,6,43.7,10.0,24.4,736.3,84.0,38.665,43.105,37.925,62.16,2,4,2025-07-18,11:30:00
Cyprus,Nicosia,35.1667,33.3667,2025-11-03 09:30:00,27.1,Sunny,3.6,NE,1019.0,0.0,20,25.8,10.0,10.8,126.85,54.0,6.55,4.15,10.65,13.45,1,1,2025-11-03,09:30:00
Vatican City,Vatican City,41.904,12.453,2026-02-12 07:45:00,11.1,Moderate rain,23.0,SSE,990.0,4.35,100,8.5,4.0,33.5,183.85,37.0,19.85,1.85,9.65,13.55,1,1,2026-02-12,07:45:00
Poland,Warsaw,52.25,21.0,2025-02-07 11:15:00,1.3,Partly cloudy,19.1,ESE,1042.0,0.0,59,-3.5,10.0,24.4,455.1,44.0,16.28,18.5,26.825,27.565,2,3,2025-02-07,11:15:00
Bulgaria,Lom,43.8139,23.2361,2026-03-08 08:45:00,7.3,Partly Cloudy,6.1,ENE,1028.0,0.0,65,6.4,10.0,9.2,196.85,33.0,4.15,1.35,14.35,16.15,1,2,2026-03-08,08:45:00
Hungary,Budapest,47.5,19.0833,2026-03-19 07:30:00,7.1,Sunny,15.8,NE,1022.0,0.0,53,4.2,10.0,20.1,185.85,58.0,7.45,1.75,9.85,12.25,1,1,2026-03-19,07:30:00
Morocco,Rabat,34.0253,-6.8361,2025-04-23 10:00:00,18.4,Partly cloudy,12.6,NNE,1017.0,0.0,83,18.4,6.0,15.8,260.85,87.0,4.995,7.77,11.285,20.165,1,1,2025-04-23,10:00:00
Marshall Islands,Majuro,7.1,171.3833,2025-12-03 19:00:00,28.1,Partly cloudy,33.1,NE,1010.0,0.0,79,31.6,24.0,44.7,92.85,33.0,0.85,1.15,4.75,7.15,1,1,2025-12-03,19:00:00
Oman,Muscat,23.6133,58.5933,2025-10-18 12:00:00,31.1,Sunny,10.8,N,1013.0,0.0,59,30.7,10.0,12.4,180.85,75.0,14.45,13.95,13.95,15.45,1,2,2025-10-18,12:00:00
Chad,N'djamena,12.1131,15.0492,2025-05-15 10:00:00,34.4,Sunny,11.9,W,1010.0,0.0,41,32.5,7.0,13.7,514.3,96.0,2.405,1.295,56.24,187.405,3,7,2025-05-15,10:00:00
Norway,Oslo,59.9167,10.75,2025-11-29 08:15:00,5.0,Partly cloudy,19.4,SSW,988.0,0.01,70,1.1,10.0,25.3,147.85,64.0,6.75,1.35,3.85,7.05,1,1,2025-11-29,08:15:00
Bahamas,Nassau,25.0833,-77.35,2025-08-23 04:00:00,26.1,Clear,7.9,S,1016.0,0.0,94,28.3,10.0,10.8,264.55,87.0,5.365,5.735,14.985,19.795,1,2,2025-08-23,04:00:00
Saint Vincent And The Grenadines,Kingstown,13.13,-61.22,2024-06-24 09:45:00,29.0,Partly cloudy,31.0,E,1015.0,0.05,79,35.1,10.0,43.4,180.2,22.5,0.2,0.1,1.6,4.6,1,1,2024-06-24,09:45:00
Suriname,Paramaribo,5.8333,-55.1667,2026-01-10 04:30:00,22.2,Mist,9.4,E,1010.0,0.0,94,24.7,10.0,16.5,154.85,37.0,2.55,1.65,7.55,10.65,1,1,2026-01-10,04:30:00
Bolivia,National,-11.1833,-67.0833,2025-01-26 06:15:00,22.1,Patchy rain nearby,3.6,NE,1012.0,1.94,93,24.6,9.0,4.5,297.85,28.0,0.37,0.185,12.025,12.025,1,2,2025-01-26,06:15:00
United States,Washington Harbor,48.0792,-123.0439,2025-02-17 02:15:00,6.1,Light drizzle,3.6,S,1010.0,2.83,100,5.9,16.0,10.8,458.8,77.0,8.51,0.74,2.96,3.145,1,1,2025-02-17,02:15:00
Papua New Guinea,Port Moresby,-9.4647,147.1925,2025-04-21 19:15:00,28.3,Mist,16.6,SE,1008.0,0.0,84,33.6,10.0,27.4,251.6,50.0,3.885,0.555,11.84,12.765,1,1,2025-04-21,19:15:00
Mauritania,Nouakchott,18.0864,-15.9753,2025-04-13 09:00:00,19.9,Sunny,21.6,N,1015.0,0.0,63,19.9,10.0,33.5,296.0,69.0,0.925,0.74,124.875,671.92,4,10,2025-04-13,09:00:00
Timor-Leste,Dili,-8.5586,125.5736,2025-02-21 19:00:00,25.6,Moderate or heavy rain shower,3.6,NE,1011.0,4.18,86,28.4,7.0,10.8,273.8,58.0,0.925,4.07,4.255,4.44,1,1,2025-02-21,19:00:00
Saint Lucia,Castries,14.0,-61.0,2025-04-06 05:00:00,25.3,Partly cloudy,23.4,ENE,1015.0,0.01,83,27.1,10.0,40.3,218.337,91.0,0.508,0.339,14.556,23.526,1,2,2025-04-06,05:00:00
Netherlands,Amsterdam,52.374,4.8897,2025-03-27 10:15:00,10.0,Sunny,9.0,SW,1022.0,0.0,76,8.8,10.0,10.9,599.4,20.0,92.87,10.175,42.365,44.03,3,5,2025-03-27,10:15:00
Peru,Lima,-12.05,-77.05,2025-11-27 02:15:00,17.9,Partly Cloudy,8.6,S,1011.0,0.0,87,17.9,10.0,10.5,243.85,36.0,11.65,3.05,12.25,16.35,1,2,2025-11-27,02:15:00
Rwanda,Kigali,-1.9536,30.0606,2025-07-26 10:30:00,24.2,Partly cloudy,10.1,SSE,1024.0,0.0,47,24.8,10.0,11.6,969.4,77.0,10.73,5.18,56.055,57.535,3,7,2025-07-26,10:30:00
Fiji Islands,Suva,-18.1333,178.4167,2025-12-25 19:00:00,28.2,Partly cloudy,10.8,E,1009.0,0.03,74,33.2,10.0,18.3,77.85,30.0,1.95,1.65,6.15,8.35,1,1,2025-12-25,19:00:00
Turkey,Ankara,39.9272,32.8644,2025-06-25 12:00:00,28.2,Sunny,9.4,NNE,1017.0,0.0,19,26.2,10.0,10.8,299.7,69.0,32.93,17.39,20.905,30.71,2,2,2025-06-25,12:00:00
Democratic Republic Of Congo,Kinshasa,-4.3,15.3,2024-07-09 13:45:00,34.7,Sunny,5.4,SW,1010.0,0.0,28,34.6,10.0,6.2,427.3,75.1,1.2,0.8,9.6,22.0,1,1,2024-07-09,13:45:00
Nigeria,Abuja,9.1758,7.1808,2025-07-01 09:45:00,24.1,Moderate or heavy rain with thunder,8.3,WSW,1017.0,0.6,94,26.5,5.0,10.1,438.45,53.0,8.51,1.11,20.165,26.27,2,2,2025-07-01,09:45:00
Lithuania,Vilnius,54.68,25.32,2024-06-08 17:15:00,18.3,Partly cloudy,19.1,NW,1014.0,0.0,45,18.3,10.0,26.3,171.9,110.2,0.8,0.4,1.0,1.2,1,1,2024-06-08,17:15:00
Poland,Warsaw,52.25,21.0,2024-11-19 09:45:00,3.2,Sunny,15.1,SSW,1007.0,0.0,81,-0.5,10.0,20.6,484.7,58.0,12.95,8.14,17.39,19.61,2,2,2024-11-19,09:45:00
Portugal,Lisbon,38.7167,-9.1333,2025-03-28 09:45:00,15.3,Sunny,6.1,N,1020.0,0.0,77,15.3,10.0,9.1,329.3,72.0,27.38,3.515,34.225,47.36,2,3,2025-03-28,09:45:00
Fiji Islands,Suva,-18.1333,178.4167,2025-12-26 19:15:00,28.2,Partly cloudy,11.9,E,1009.0,0.76,84,34.4,10.0,19.5,76.85,34.0,1.85,1.65,7.75,10.95,1,1,2025-12-26,19:15:00
Sudan,Juba,12.15,24.45,2024-12-27 12:45:00,26.7,Sunny,28.1,NE,1015.0,0.0,9,25.0,10.0,32.3,247.9,60.0,2.035,1.48,46.99,295.445,3,5,2024-12-27,12:45:00
Cameroon,Ngaoundere,7.3167,13.5833,2025-01-02 11:00:00,28.2,Sunny,14.8,NE,1018.0,0.0,23,26.2,10.0,17.0,357.05,110.0,0.925,1.295,44.03,81.4,3,5,2025-01-02,11:00:00
Andorra,Andorra La Vella,42.5,1.52,2024-08-31 14:00:00,20.7,Patchy light rain in area with thunder,9.4,SSW,1018.0,0.86,56,20.7,10.0,11.8,176.9,65.1,0.2,0.2,1.4,2.5,1,1,2024-08-31,14:00:00
Afghanistan,Kabul,34.52,69.18,2024-08-31 16:30:00,28.0,Partly Cloudy,9.0,NE,1006.0,0.0,32,27.2,10.0,10.4,460.6,90.1,1.5,0.1,3.9,4.9,1,1,2024-08-31,16:30:00
Mexico,Mexico City,19.4285,-99.1277,2024-10-22 03:15:00,14.4,Partly cloudy,7.2,N,1028.0,0.0,88,14.3,16.0,8.3,560.55,38.0,45.88,30.895,9.62,14.06,1,1,2024-10-22,03:15:00
Paraguay,Aguaray,-19.85,-58.5167,2025-10-05 03:30:00,26.0,Clear,9.0,NNE,1004.0,0.0,45,26.3,10.0,18.9,245.678,74.0,1.778,0.978,13.878,13.878,1,2,2025-10-05,03:30:00
Niger,Niamey,13.52,2.12,2024-07-25 13:15:00,33.2,Partly Cloudy,25.9,WSW,1011.0,0.0,48,36.8,10.0,29.8,373.8,23.3,0.5,0.4,1.6,3.5,1,1,2024-07-25,13:15:00
Morocco,Rabat,34.03,-6.84,2024-07-16 13:45:00,25.0,Sunny,19.1,NNW,1016.0,0.0,65,26.4,6.0,22.0,160.2,100.1,0.3,1.3,6.4,20.9,1,1,2024-07-16,13:45:00
Estonia,Tallinn,59.4339,24.7281,2025-07-29 11:45:00,24.4,Patchy rain nearby,16.9,SE,1005.0,0.01,74,26.0,10.0,27.7,294.15,69.0,6.845,0.925,13.32,16.465,1,2,2025-07-29,11:45:00
Qatar,Doha,25.2867,51.5333,2025-06-13 12:00:00,44.0,Sunny,7.2,NE,1002.0,0.0,13,46.2,10.0,11.6,847.3,93.0,75.85,19.055,49.58,142.635,3,6,2025-06-13,12:00:00
Dominican Republic,Santo Domingo,18.4667,-69.9,2025-03-31 05:15:00,21.4,Partly cloudy,10.1,NNE,1015.0,0.0,100,21.4,10.0,17.0,357.05,80.0,15.17,7.955,19.055,26.455,2,2,2025-03-31,05:15:00
Tunisia,Tunis,36.8028,10.1797,2026-02-19 07:45:00,11.2,Clear,12.2,SW,1013.0,0.0,87,9.7,10.0,25.7,149.85,37.0,5.95,6.75,9.05,13.05,1,1,2026-02-19,07:45:00
Vietnam,Ban Lom,21.1333,104.7,2025-06-30 15:45:00,28.4,Light rain shower,3.6,SE,1002.0,0.59,86,34.3,10.0,5.0,288.6,55.0,4.81,4.995,12.21,13.875,1,2,2025-06-30,15:45:00
Ghana,Accra,5.55,-0.2167,2025-07-02 08:45:00,25.4,Partly cloudy,15.5,W,1016.0,0.0,89,27.6,10.0,20.7,344.1,49.0,5.55,4.44,14.245,17.575,1,2,2025-07-02,08:45:00
Niger,Niamey,13.5167,2.1167,2025-06-25 09:45:00,28.3,Sunny,15.1,SSW,1013.0,0.0,74,28.7,8.0,17.4,370.0,66.0,2.96,0.74,20.165,52.725,2,2,2025-06-25,09:45:00
Bulgaria,Bogot,43.32,24.7,2024-08-22 15:00:00,35.0,Partly Cloudy,10.8,WNW,1008.0,0.0,22,33.5,10.0,12.4,223.6,103.0,0.5,0.5,6.8,7.0,1,1,2024-08-22,15:00:00
Guinea-Bissau,Bissau,11.85,-15.58,2024-10-02 09:30:00,26.4,Partly cloudy,11.5,W,1011.0,0.05,94,29.8,10.0,15.0,318.2,39.0,1.295,0.925,8.51,16.28,1,1,2024-10-02,09:30:00
Saint Lucia,Castries,14.0,-61.0,2024-11-05 05:00:00,26.1,Light rain shower,16.9,E,1010.0,0.06,94,29.0,10.0,25.1,242.35,45.0,0.185,0.185,20.35,36.26,2,2,2024-11-05,05:00:00
Latvia,Riga,56.95,24.1,2024-07-14 16:15:00,21.6,Sunny,12.2,W,1015.0,0.0,59,21.6,10.0,18.2,156.9,93.0,0.8,0.4,2.3,2.7,1,1,2024-07-14,16:15:00
Sudan,Juba,12.15,24.45,2025-07-29 10:45:00,23.3,Light rain shower,22.0,ESE,1016.0,0.79,82,25.3,10.0,27.7,321.9,46.0,9.065,1.665,20.905,69.56,2,2,2025-07-29,10:45:00
Monaco,Monaco,43.7333,7.4167,2026-01-26 08:00:00,6.3,Partly cloudy,13.0,NNW,998.0,0.0,70,3.7,10.0,20.6,167.85,63.0,7.25,1.55,5.05,5.55,1,1,2026-01-26,08:00:00
Djibouti,Djibouti,11.595,43.1481,2025-09-07 10:45:00,33.9,Sunny,11.5,ESE,1007.0,0.0,48,38.1,10.0,17.6,342.25,56.0,5.365,4.625,41.625,112.48,3,4,2025-09-07,10:45:00
Botswana,Gaborone,-24.6464,25.9119,2025-02-19 12:15:00,22.3,Light rain,17.3,NE,1013.0,0.84,94,24.7,10.0,24.0,370.0,55.0,4.07,0.74,4.07,4.255,1,1,2025-02-19,12:15:00
Chile,Santiago,-33.45,-70.6667,2025-08-26 04:15:00,4.0,Mist,7.6,ENE,1017.0,0.0,93,2.1,5.0,15.9,3300.4,15.0,105.45,68.08,66.415,66.6,4,9,2025-08-26,04:15:00
Tuvalu,Funafuti,-8.52,179.22,2024-06-02 02:30:00,29.0,Partly cloudy,3.6,E,1009.0,1.0,89,34.0,10.0,21.5,205.3,17.4,0.0,0.1,1.0,3.3,1,1,2024-06-02,02:30:00
Peru,Lima,-12.05,-77.05,2026-03-21 01:30:00,22.3,Clear,14.8,SSE,1012.0,0.0,76,24.6,10.0,18.8,280.85,17.0,22.15,5.85,13.65,24.45,1,2,2026-03-21,01:30:00
Saint Kitts And Nevis,Basseterre,17.3,-62.7167,2025-08-21 04:00:00,28.4,Patchy rain nearby,29.5,E,1014.0,0.04,79,32.0,10.0,41.7,240.5,42.0,0.74,0.555,14.615,35.15,1,2,2025-08-21,04:00:00
Sudan,Khartoum,15.5881,32.5342,2025-07-07 10:45:00,36.1,Sunny,14.4,WSW,1009.0,0.0,19,34.5,10.0,16.6,390.35,69.0,2.59,1.11,30.525,100.085,2,3,2025-07-07,10:45:00
Fiji Islands,Suva,-18.1333,178.4167,2025-04-02 21:00:00,25.3,Moderate or heavy rain with thunder,13.0,E,1012.0,10.69,100,28.3,10.0,27.5,133.2,35.0,1.295,1.295,3.515,5.365,1,1,2025-04-02,21:00:00
Dominica,Roseau,15.3,-61.4,2025-11-25 03:30:00,26.0,Patchy rain nearby,16.2,ENE,1013.0,0.1,78,28.4,10.0,21.5,115.85,50.0,1.05,0.95,4.55,6.95,1,1,2025-11-25,03:30:00
Iraq,Baghdad,33.3386,44.3939,2024-10-25 12:15:00,24.1,Sunny,14.4,NNW,1021.0,0.0,19,23.2,10.0,16.6,1561.4,33.0,91.575,44.585,34.41,69.375,2,3,2024-10-25,12:15:00
Botswana,Gaborone,-24.65,25.91,2024-06-09 16:15:00,19.1,Sunny,16.9,ENE,1029.0,0.0,35,19.1,10.0,24.1,240.3,50.8,1.8,0.9,1.6,2.8,1,1,2024-06-09,16:15:00
Bulgaria,Bogot,43.3167,24.7,2025-05-19 12:00:00,22.4,Sunny,19.4,W,1016.0,0.0,38,24.0,10.0,22.4,260.85,78.0,4.625,3.515,8.14,9.62,1,1,2025-05-19,12:00:00
Syria,Damascus,33.5,36.3,2024-08-07 15:15:00,37.6,Sunny,22.0,SSW,1003.0,0.0,13,36.5,10.0,25.3,198.6,170.2,2.1,5.7,14.6,18.9,1,2,2024-08-07,15:15:00
Bhutan,Thimphu,27.4833,89.6,2026-01-07 13:15:00,6.1,Sunny,9.4,ESE,1015.0,0.0,40,4.1,10.0,10.8,203.85,102.0,2.45,1.95,16.85,17.05,2,2,2026-01-07,13:15:00
Slovenia,Ljubljana,46.0553,14.5144,2026-02-05 08:00:00,4.3,Light rain,3.6,E,993.0,0.36,93,3.9,4.0,3.8,227.85,33.0,15.55,3.25,22.75,26.15,2,2,2026-02-05,08:00:00
Philippines,Manila,14.6042,120.9822,2025-05-21 16:45:00,35.3,Sunny,20.2,ESE,1007.0,0.0,47,39.8,10.0,25.7,529.1,55.0,16.65,29.97,22.94,25.9,2,2,2025-05-21,16:45:00
Bangladesh,Dhaka,23.72,90.41,2024-06-12 20:15:00,30.9,Patchy rain nearby,27.0,SSE,1001.0,0.34,68,36.6,9.0,38.5,507.4,51.5,13.4,4.5,11.2,19.6,1,1,2024-06-12,20:15:00
Cameroon,Ngaoundere,7.3167,13.5833,2024-12-12 11:45:00,28.9,Sunny,16.9,NNE,1012.0,0.0,14,26.8,10.0,19.5,296.0,96.0,0.74,1.665,54.575,144.67,3,7,2024-12-12,11:45:00
Iceland,Reykjavik,64.15,-21.95,2025-12-16 07:15:00,0.1,Partly Cloudy,8.3,ENE,986.0,0.0,80,-2.7,10.0,14.1,149.85,59.0,7.45,2.15,2.65,3.85,1,1,2025-12-16,07:15:00
Algeria,Algiers,36.7631,3.0506,2025-06-01 09:45:00,26.3,Sunny,6.5,ENE,1018.0,0.0,54,26.8,10.0,8.9,349.65,51.0,42.365,26.64,29.6,49.95,2,3,2025-06-01,09:45:00
Russia,Moscow,55.75,37.62,2024-09-10 15:30:00,25.3,Sunny,22.0,S,1017.0,0.0,36,25.7,10.0,22.5,399.6,69.0,25.53,48.1,30.34,36.075,2,3,2024-09-10,15:30:00
Democratic Republic Of Congo,Kinshasa,-4.3,15.3,2025-02-20 11:00:00,29.1,Partly cloudy,5.4,W,1013.0,0.0,75,31.4,10.0,6.2,760.35,109.0,2.59,3.7,60.865,66.6,3,8,2025-02-20,11:00:00
Algeria,Algiers,36.7631,3.0506,2025-07-09 09:45:00,29.3,Sunny,21.2,ENE,1017.0,0.0,62,33.6,10.0,25.6,249.75,68.0,11.1,4.255,10.545,27.935,1,1,2025-07-09,09:45:00
Namibia,Windhoek,-22.5717,17.0822,2025-03-28 11:45:00,23.3,Partly cloudy,14.8,N,1024.0,0.0,65,24.8,10.0,17.0,203.5,67.0,0.555,1.11,34.41,34.965,2,3,2025-03-28,11:45:00
Germany,Berlin,52.5167,13.4,2026-02-25 07:30:00,0.4,Freezing fog,3.6,NE,1024.0,0.0,100,-0.4,1.0,3.8,225.85,10.0,33.15,3.55,13.25,19.95,1,2,2026-02-25,07:30:00
Liberia,Monrovia,6.31,-10.8,2024-08-05 12:30:00,26.5,Patchy rain nearby,13.7,S,1016.0,0.09,76,29.0,10.0,17.1,257.0,50.8,0.1,0.1,1.2,4.4,1,1,2024-08-05,12:30:00
Singapore,Singapore,1.2931,103.8558,2025-04-16 17:00:00,32.1,Moderate or heavy rain with thunder,12.2,WNW,1007.0,0.1,63,41.2,10.0,16.2,960.15,35.0,99.9,30.525,32.56,33.485,2,3,2025-04-16,17:00:00
Sudan,Khartoum,15.5881,32.5342,2026-01-28 09:00:00,25.7,Sunny,32.8,N,1017.0,0.0,17,24.2,10.0,37.7,238.85,62.0,2.95,2.95,34.45,132.15,2,3,2026-01-28,09:00:00
Madagascar,Antananarivo,-18.9167,47.5167,2024-12-30 13:30:00,23.3,Patchy light rain with thunder,5.8,ENE,1019.0,0.03,65,24.8,10.0,6.8,305.25,71.0,0.74,0.925,9.065,9.62,1,1,2024-12-30,13:30:00
Tajikistan,Dushanbe,38.56,68.7739,2024-11-06 14:00:00,21.1,Patchy rain nearby,10.1,WNW,1020.0,0.14,47,21.1,10.0,11.6,838.05,49.0,16.65,8.695,22.015,39.22,2,2,2024-11-06,14:00:00
Finland,Helsinki,60.18,24.93,2024-06-09 17:15:00,15.2,Partly cloudy,24.1,SW,998.0,0.0,59,15.2,10.0,29.6,178.6,75.1,1.0,0.5,0.5,0.8,1,1,2024-06-09,17:15:00
Cameroon,Ngaoundere,7.3167,13.5833,2025-02-18 11:15:00,31.7,Sunny,10.8,NNE,1011.0,0.0,10,29.4,10.0,12.4,334.85,104.0,1.11,1.11,33.855,106.56,2,3,2025-02-18,11:15:00
Tanzania,Dodoma,-6.1833,35.75,2026-02-07 09:45:00,20.0,Moderate rain,7.6,NNW,1022.0,0.11,94,20.0,8.0,9.8,187.85,43.0,3.65,1.05,7.55,8.35,1,1,2026-02-07,09:45:00
Angola,Luanda,-8.8383,13.2344,2025-01-26 11:15:00,31.2,Partly cloudy,4.7,SE,1012.0,0.0,59,40.3,10.0,6.2,464.35,59.0,7.585,6.475,29.045,38.85,2,3,2025-01-26,11:15:00
Singapore,Singapore,1.2931,103.8558,2025-12-02 15:15:00,26.2,Light rain,19.4,WSW,1010.0,0.29,84,28.2,10.0,24.8,779.85,33.0,72.55,23.35,21.55,21.85,2,2,2025-12-02,15:15:00
Guinea-Bissau,Bissau,11.85,-15.5833,2026-01-11 07:00:00,22.6,Clear,16.9,NNE,1012.0,0.0,43,24.4,10.0,34.3,164.85,44.0,1.85,1.15,53.25,145.65,3,6,2026-01-11,07:00:00
Malta,Valletta,35.8997,14.5147,2025-03-24 10:30:00,21.4,Sunny,8.6,SSW,1012.0,0.0,64,21.4,7.0,17.7,268.25,68.0,17.575,2.59,119.51,214.045,4,10,2025-03-24,10:30:00
Brunei Darussalam,Bandar Seri Begawan,4.8833,114.9333,2025-06-01 16:45:00,32.1,Partly cloudy,8.6,W,1009.0,0.28,67,40.6,10.0,11.6,758.5,33.0,3.7,2.96,17.02,18.315,2,2,2025-06-01,16:45:00
Solomon Islands,Honiara,-9.4333,159.95,2024-10-14 20:30:00,26.4,Patchy rain nearby,14.4,ESE,1011.0,0.01,86,29.9,10.0,19.9,170.2,18.0,0.0,0.555,4.625,7.03,1,1,2024-10-14,20:30:00
Norway,Oslo,59.9167,10.75,2026-02-09 07:45:00,4.1,Partly cloudy,5.4,N,1008.0,0.01,87,2.9,10.0,11.3,244.85,49.0,18.75,2.85,8.35,13.25,1,1,2026-02-09,07:45:00
Sudan,Khartoum,15.5881,32.5342,2026-01-16 09:15:00,19.4,Sunny,23.8,NNE,1016.0,0.0,26,19.4,10.0,29.3,186.85,70.0,2.35,2.25,33.35,137.75,2,3,2026-01-16,09:15:00
Iceland,Vestmannaeyjar,63.365,-20.2075,2025-01-05 09:45:00,-4.7,Clear,8.3,NE,1016.0,0.0,58,-8.4,10.0,12.3,280.93,89.0,0.551,0.551,1.469,4.04,1,1,2025-01-05,09:45:00
Saint Lucia,Castries,14.0,-61.0,2025-02-02 06:15:00,24.8,Patchy rain nearby,27.7,E,1014.0,0.01,77,26.7,10.0,39.3,188.7,80.0,0.185,0.185,21.46,32.745,2,2,2025-02-02,06:15:00
Afghanistan,Kabul,34.5167,69.1833,2025-06-09 13:15:00,32.3,Sunny,8.6,SE,1004.0,0.0,10,30.1,10.0,9.9,418.1,142.0,4.44,17.76,48.47,137.825,3,6,2025-06-09,13:15:00
Switzerland,S-Chanf,46.6167,9.9833,2025-08-21 10:00:00,11.0,Partly cloudy,4.3,NW,1011.0,1.14,94,11.1,5.0,6.2,211.93,71.0,1.247,0.0,5.699,6.233,1,1,2025-08-21,10:00:00
Kyrghyzstan,Bishkek,42.8731,74.6003,2024-12-05 16:30:00,3.6,Overcast,3.6,WNW,1028.0,0.0,55,3.6,10.0,10.8,1983.2,66.0,42.365,83.435,67.895,74.555,4,9,2024-12-05,16:30:00
Albania,Tirana,41.3275,19.8189,2024-12-30 11:30:00,11.4,Sunny,3.6,NNW,1029.0,0.0,50,11.8,10.0,10.8,469.9,53.0,62.345,23.31,49.95,57.72,3,6,2024-12-30,11:30:00
Papua New Guinea,Port Moresby,-9.4647,147.1925,2024-11-06 19:00:00,26.1,Patchy rain nearby,23.8,SE,1010.0,0.33,89,29.6,9.0,36.9,222.0,25.0,0.555,0.74,8.88,14.06,1,1,2024-11-06,19:00:00
Algeria,Algiers,36.7631,3.0506,2026-02-09 07:45:00,9.1,Partly cloudy,19.1,WSW,1013.0,0.0,76,6.3,10.0,30.7,146.85,66.0,7.75,3.95,5.05,10.95,1,1,2026-02-09,07:45:00
Cambodia,Phnom Penh,11.55,104.9167,2025-02-03 17:30:00,33.0,Partly cloudy,11.9,ENE,1007.0,0.0,53,32.7,10.0,15.5,736.3,137.0,8.325,22.755,63.455,65.49,3,8,2025-02-03,17:30:00
India,New Delhi,28.6,77.2,2024-08-26 17:45:00,29.3,Moderate or heavy rain with thunder,11.2,E,1001.0,0.0,79,31.0,3.5,20.2,974.7,57.2,72.0,84.9,57.4,64.7,3,7,2024-08-26,17:45:00
Israel,Jerusalem,31.78,35.23,2024-10-23 12:30:00,18.6,Sunny,23.0,E,1019.0,0.0,17,18.6,10.0,28.7,294.15,67.0,13.135,5.735,46.065,286.935,3,5,2024-10-23,12:30:00
Seychelles Islands,Victoria,-4.6167,55.45,2025-09-22 12:00:00,26.1,Partly cloudy,34.6,SSE,1012.0,0.02,89,29.4,10.0,46.8,166.5,40.0,1.48,1.11,15.355,25.53,1,2,2025-09-22,12:00:00
Belgium,Brussels,50.83,4.33,2024-06-17 16:00:00,20.2,Patchy rain nearby,12.6,WSW,1012.0,0.09,63,20.2,10.0,16.1,188.6,54.4,4.7,0.6,0.6,0.8,1,1,2024-06-17,16:00:00
Guinea,Conakry,9.5092,-13.7122,2024-10-04 09:45:00,26.2,Light rain,18.0,SE,1014.0,0.13,89,29.1,8.0,29.1,299.7,38.0,2.035,1.295,4.44,7.4,1,1,2024-10-04,09:45:00
Hungary,Budapest,47.5,19.0833,2025-01-04 10:45:00,3.1,Partly cloudy,12.6,WNW,1023.0,0.0,48,-0.2,10.0,15.7,347.8,52.0,19.24,2.59,17.575,22.2,2,2,2025-01-04,10:45:00
Bangladesh,Dhaka,23.7231,90.4086,2025-11-01 14:15:00,34.0,Partly Cloudy,12.2,SSW,1005.0,0.0,45,37.6,10.0,14.1,377.85,40.0,44.05,38.25,53.15,53.55,3,6,2025-11-01,14:15:00
Italy,Rome,41.9,12.4833,2025-06-14 11:00:00,31.4,Sunny,6.5,SW,1019.0,0.0,43,30.4,10.0,7.5,342.25,92.0,6.66,0.74,17.39,21.275,2,2,2025-06-14,11:00:00
Denmark,Copenhagen,55.6667,12.5833,2026-02-01 08:00:00,-3.7,Partly Cloudy,41.0,ESE,1020.0,0.0,68,-12.4,10.0,55.1,172.85,75.0,3.45,1.75,3.65,5.15,1,1,2026-02-01,08:00:00
Canada,Ottawa,45.42,-75.7,2024-07-11 08:45:00,18.3,Light rain shower,12.6,NE,1010.0,0.2,96,18.3,10.0,19.4,200.3,36.8,1.4,0.2,0.8,0.8,1,1,2024-07-11,08:45:00
Burkina Faso,Ouagadougou,12.37,-1.52,2024-07-28 12:45:00,32.8,Partly Cloudy,22.7,SW,1010.0,0.0,49,36.3,10.0,26.1,393.9,18.8,0.5,0.5,1.9,5.1,1,1,2024-07-28,12:45:00
Somalia,Mogadishu,2.0667,45.3667,2025-10-05 09:30:00,28.2,Partly cloudy,26.6,S,1015.0,0.01,79,32.0,10.0,32.0,108.85,26.0,1.35,1.15,7.85,11.15,1,1,2025-10-05,09:30:00
Sweden,Stockholm,59.3333,18.05,2025-03-29 10:15:00,11.1,Sunny,15.1,SW,1010.0,0.0,62,9.3,10.0,19.5,357.05,58.0,7.215,1.295,26.64,30.155,2,3,2025-03-29,10:15:00
El Salvador,San Salvador,13.7086,-89.2031,2025-12-18 01:00:00,24.2,Light rain shower,3.6,NNW,1010.0,0.19,89,26.8,10.0,4.4,330.85,25.0,15.85,3.95,16.65,16.95,2,2,2025-12-18,01:00:00
Angola,Luanda,-8.8383,13.2344,2026-03-01 07:30:00,26.2,Partly cloudy,9.7,SE,1009.0,0.0,79,29.1,10.0,13.6,131.85,40.0,5.15,4.55,10.75,16.95,1,1,2026-03-01,07:30:00
